time,.header.seq,.header.stamp.secs,.header.stamp.nsecs,.header.frame_id,.pose.pose.position.x,.pose.pose.position.y,.pose.pose.position.z,.pose.pose.orientation.x,.pose.pose.orientation.y,.pose.pose.orientation.z,.pose.pose.orientation.w,.pose.covariance
1969/12/31/19:00:42.330000,4151,42,330000000,world,10.0000000041,-1.13086535535e-08,4.03978767834,-1.33866265267e-08,-3.86841152346e-09,0.760353537382,0.64950942887,"(0.0, 0.0, 0.0, 0.0, 0.0, 0.0, 0.0, 0.0, 0.0, 0.0, 0.0, 0.0, 0.0, 0.0, 0.0, 0.0, 0.0, 0.0, 0.0, 0.0, 0.0, 0.0, 0.0, 0.0, 0.0, 0.0, 0.0, 0.0, 0.0, 0.0, 0.0, 0.0, 0.0, 0.0, 0.0, 0.0)"
1969/12/31/19:00:42.340000,4152,42,340000000,world,10.000000004,-1.13590499308e-08,4.0397876779,-1.2739045117e-08,-1.20465828562e-09,0.760353537393,0.649509428857,"(0.0, 0.0, 0.0, 0.0, 0.0, 0.0, 0.0, 0.0, 0.0, 0.0, 0.0, 0.0, 0.0, 0.0, 0.0, 0.0, 0.0, 0.0, 0.0, 0.0, 0.0, 0.0, 0.0, 0.0, 0.0, 0.0, 0.0, 0.0, 0.0, 0.0, 0.0, 0.0, 0.0, 0.0, 0.0, 0.0)"
1969/12/31/19:00:42.350000,4153,42,350000000,world,10.0000000039,-1.13957246856e-08,4.03978767744,-1.20551349134e-08,1.57870031442e-09,0.760353537403,0.649509428845,"(0.0, 0.0, 0.0, 0.0, 0.0, 0.0, 0.0, 0.0, 0.0, 0.0, 0.0, 0.0, 0.0, 0.0, 0.0, 0.0, 0.0, 0.0, 0.0, 0.0, 0.0, 0.0, 0.0, 0.0, 0.0, 0.0, 0.0, 0.0, 0.0, 0.0, 0.0, 0.0, 0.0, 0.0, 0.0, 0.0)"
1969/12/31/19:00:42.360000,4154,42,360000000,world,10.0000000037,-1.14153961636e-08,4.03978767695,-1.1347514861e-08,4.44030835705e-09,0.760353537413,0.649509428833,"(0.0, 0.0, 0.0, 0.0, 0.0, 0.0, 0.0, 0.0, 0.0, 0.0, 0.0, 0.0, 0.0, 0.0, 0.0, 0.0, 0.0, 0.0, 0.0, 0.0, 0.0, 0.0, 0.0, 0.0, 0.0, 0.0, 0.0, 0.0, 0.0, 0.0, 0.0, 0.0, 0.0, 0.0, 0.0, 0.0)"
1969/12/31/19:00:42.370000,4155,42,370000000,world,10.0000000036,-1.14146987318e-08,4.03978767642,-1.06245800405e-08,7.35248804239e-09,0.760353537424,0.649509428821,"(0.0, 0.0, 0.0, 0.0, 0.0, 0.0, 0.0, 0.0, 0.0, 0.0, 0.0, 0.0, 0.0, 0.0, 0.0, 0.0, 0.0, 0.0, 0.0, 0.0, 0.0, 0.0, 0.0, 0.0, 0.0, 0.0, 0.0, 0.0, 0.0, 0.0, 0.0, 0.0, 0.0, 0.0, 0.0, 0.0)"
1969/12/31/19:00:42.390000,4156,42,380000000,world,10.0000000034,-1.13900939424e-08,4.03978767589,-9.93630348199e-09,1.01498269391e-08,0.760353537434,0.649509428809,"(0.0, 0.0, 0.0, 0.0, 0.0, 0.0, 0.0, 0.0, 0.0, 0.0, 0.0, 0.0, 0.0, 0.0, 0.0, 0.0, 0.0, 0.0, 0.0, 0.0, 0.0, 0.0, 0.0, 0.0, 0.0, 0.0, 0.0, 0.0, 0.0, 0.0, 0.0, 0.0, 0.0, 0.0, 0.0, 0.0)"
1969/12/31/19:00:42.390000,4157,42,390000000,world,10.0000000033,-1.13382183348e-08,4.03978767538,-9.30617457717e-09,1.27548977591e-08,0.760353537445,0.649509428797,"(0.0, 0.0, 0.0, 0.0, 0.0, 0.0, 0.0, 0.0, 0.0, 0.0, 0.0, 0.0, 0.0, 0.0, 0.0, 0.0, 0.0, 0.0, 0.0, 0.0, 0.0, 0.0, 0.0, 0.0, 0.0, 0.0, 0.0, 0.0, 0.0, 0.0, 0.0, 0.0, 0.0, 0.0, 0.0, 0.0)"
1969/12/31/19:00:42.410000,4158,42,400000000,world,10.0000000031,-1.12559373969e-08,4.03978767488,-8.74544681565e-09,1.51303307271e-08,0.760353537455,0.649509428784,"(0.0, 0.0, 0.0, 0.0, 0.0, 0.0, 0.0, 0.0, 0.0, 0.0, 0.0, 0.0, 0.0, 0.0, 0.0, 0.0, 0.0, 0.0, 0.0, 0.0, 0.0, 0.0, 0.0, 0.0, 0.0, 0.0, 0.0, 0.0, 0.0, 0.0, 0.0, 0.0, 0.0, 0.0, 0.0, 0.0)"
1969/12/31/19:00:42.420000,4159,42,410000000,world,10.000000003,-1.11403763003e-08,4.0397876744,-8.25972582902e-09,1.72569317772e-08,0.760353537465,0.649509428772,"(0.0, 0.0, 0.0, 0.0, 0.0, 0.0, 0.0, 0.0, 0.0, 0.0, 0.0, 0.0, 0.0, 0.0, 0.0, 0.0, 0.0, 0.0, 0.0, 0.0, 0.0, 0.0, 0.0, 0.0, 0.0, 0.0, 0.0, 0.0, 0.0, 0.0, 0.0, 0.0, 0.0, 0.0, 0.0, 0.0)"
1969/12/31/19:00:42.420000,4160,42,420000000,world,10.0000000029,-1.09888806285e-08,4.03978767393,-7.84197133406e-09,1.90788052373e-08,0.760353537477,0.649509428759,"(0.0, 0.0, 0.0, 0.0, 0.0, 0.0, 0.0, 0.0, 0.0, 0.0, 0.0, 0.0, 0.0, 0.0, 0.0, 0.0, 0.0, 0.0, 0.0, 0.0, 0.0, 0.0, 0.0, 0.0, 0.0, 0.0, 0.0, 0.0, 0.0, 0.0, 0.0, 0.0, 0.0, 0.0, 0.0, 0.0)"
1969/12/31/19:00:42.430000,4161,42,430000000,world,10.0000000027,-1.07991780782e-08,4.03978767346,-7.48700164182e-09,2.05602727629e-08,0.760353537489,0.649509428744,"(0.0, 0.0, 0.0, 0.0, 0.0, 0.0, 0.0, 0.0, 0.0, 0.0, 0.0, 0.0, 0.0, 0.0, 0.0, 0.0, 0.0, 0.0, 0.0, 0.0, 0.0, 0.0, 0.0, 0.0, 0.0, 0.0, 0.0, 0.0, 0.0, 0.0, 0.0, 0.0, 0.0, 0.0, 0.0, 0.0)"
1969/12/31/19:00:42.440000,4162,42,440000000,world,10.0000000026,-1.05694331355e-08,4.03978767298,-7.19101148066e-09,2.16788218202e-08,0.760353537504,0.649509428726,"(0.0, 0.0, 0.0, 0.0, 0.0, 0.0, 0.0, 0.0, 0.0, 0.0, 0.0, 0.0, 0.0, 0.0, 0.0, 0.0, 0.0, 0.0, 0.0, 0.0, 0.0, 0.0, 0.0, 0.0, 0.0, 0.0, 0.0, 0.0, 0.0, 0.0, 0.0, 0.0, 0.0, 0.0, 0.0, 0.0)"
1969/12/31/19:00:42.460000,4163,42,450000000,world,10.0000000025,-1.02982829861e-08,4.0397876725,-6.95127632318e-09,2.24199611604e-08,0.760353537522,0.649509428706,"(0.0, 0.0, 0.0, 0.0, 0.0, 0.0, 0.0, 0.0, 0.0, 0.0, 0.0, 0.0, 0.0, 0.0, 0.0, 0.0, 0.0, 0.0, 0.0, 0.0, 0.0, 0.0, 0.0, 0.0, 0.0, 0.0, 0.0, 0.0, 0.0, 0.0, 0.0, 0.0, 0.0, 0.0, 0.0, 0.0)"
1969/12/31/19:00:42.470000,4164,42,460000000,world,10.0000000025,-9.98486162664e-09,4.03978767201,-6.76594691734e-09,2.27738248208e-08,0.760353537542,0.649509428683,"(0.0, 0.0, 0.0, 0.0, 0.0, 0.0, 0.0, 0.0, 0.0, 0.0, 0.0, 0.0, 0.0, 0.0, 0.0, 0.0, 0.0, 0.0, 0.0, 0.0, 0.0, 0.0, 0.0, 0.0, 0.0, 0.0, 0.0, 0.0, 0.0, 0.0, 0.0, 0.0, 0.0, 0.0, 0.0, 0.0)"
1969/12/31/19:00:42.470000,4165,42,470000000,world,10.0000000024,-9.62881710426e-09,4.0397876715,-6.63378821429e-09,2.27335785051e-08,0.760353537564,0.649509428656,"(0.0, 0.0, 0.0, 0.0, 0.0, 0.0, 0.0, 0.0, 0.0, 0.0, 0.0, 0.0, 0.0, 0.0, 0.0, 0.0, 0.0, 0.0, 0.0, 0.0, 0.0, 0.0, 0.0, 0.0, 0.0, 0.0, 0.0, 0.0, 0.0, 0.0, 0.0, 0.0, 0.0, 0.0, 0.0, 0.0)"
1969/12/31/19:00:42.480000,4166,42,480000000,world,10.0000000024,-9.23032385035e-09,4.03978767098,-6.55389816034e-09,2.22948872835e-08,0.76035353759,0.649509428627,"(0.0, 0.0, 0.0, 0.0, 0.0, 0.0, 0.0, 0.0, 0.0, 0.0, 0.0, 0.0, 0.0, 0.0, 0.0, 0.0, 0.0, 0.0, 0.0, 0.0, 0.0, 0.0, 0.0, 0.0, 0.0, 0.0, 0.0, 0.0, 0.0, 0.0, 0.0, 0.0, 0.0, 0.0, 0.0, 0.0)"
1969/12/31/19:00:42.490000,4167,42,490000000,world,10.0000000024,-8.79009035021e-09,4.03978767045,-6.52555812744e-09,2.14553560926e-08,0.760353537618,0.649509428594,"(0.0, 0.0, 0.0, 0.0, 0.0, 0.0, 0.0, 0.0, 0.0, 0.0, 0.0, 0.0, 0.0, 0.0, 0.0, 0.0, 0.0, 0.0, 0.0, 0.0, 0.0, 0.0, 0.0, 0.0, 0.0, 0.0, 0.0, 0.0, 0.0, 0.0, 0.0, 0.0, 0.0, 0.0, 0.0, 0.0)"
1969/12/31/19:00:42.500000,4168,42,500000000,world,10.0000000024,-8.30936286951e-09,4.0397876699,-6.54825253563e-09,2.02135747616e-08,0.760353537649,0.649509428557,"(0.0, 0.0, 0.0, 0.0, 0.0, 0.0, 0.0, 0.0, 0.0, 0.0, 0.0, 0.0, 0.0, 0.0, 0.0, 0.0, 0.0, 0.0, 0.0, 0.0, 0.0, 0.0, 0.0, 0.0, 0.0, 0.0, 0.0, 0.0, 0.0, 0.0, 0.0, 0.0, 0.0, 0.0, 0.0, 0.0)"
1969/12/31/19:00:42.510000,4169,42,510000000,world,10.0000000024,-7.79002471678e-09,4.03978766935,-6.63819016681e-09,1.86435849233e-08,0.760353537681,0.649509428519,"(0.0, 0.0, 0.0, 0.0, 0.0, 0.0, 0.0, 0.0, 0.0, 0.0, 0.0, 0.0, 0.0, 0.0, 0.0, 0.0, 0.0, 0.0, 0.0, 0.0, 0.0, 0.0, 0.0, 0.0, 0.0, 0.0, 0.0, 0.0, 0.0, 0.0, 0.0, 0.0, 0.0, 0.0, 0.0, 0.0)"
1969/12/31/19:00:42.520000,4170,42,520000000,world,10.0000000024,-7.2343310455e-09,4.03978766882,-6.80265887898e-09,1.67785550912e-08,0.760353537714,0.649509428481,"(0.0, 0.0, 0.0, 0.0, 0.0, 0.0, 0.0, 0.0, 0.0, 0.0, 0.0, 0.0, 0.0, 0.0, 0.0, 0.0, 0.0, 0.0, 0.0, 0.0, 0.0, 0.0, 0.0, 0.0, 0.0, 0.0, 0.0, 0.0, 0.0, 0.0, 0.0, 0.0, 0.0, 0.0, 0.0, 0.0)"
1969/12/31/19:00:42.530000,4171,42,530000000,world,10.0000000025,-6.64487507058e-09,4.03978766831,-7.04480277366e-09,1.46337837468e-08,0.760353537747,0.649509428442,"(0.0, 0.0, 0.0, 0.0, 0.0, 0.0, 0.0, 0.0, 0.0, 0.0, 0.0, 0.0, 0.0, 0.0, 0.0, 0.0, 0.0, 0.0, 0.0, 0.0, 0.0, 0.0, 0.0, 0.0, 0.0, 0.0, 0.0, 0.0, 0.0, 0.0, 0.0, 0.0, 0.0, 0.0, 0.0, 0.0)"
1969/12/31/19:00:42.540000,4172,42,540000000,world,10.0000000025,-6.02456939208e-09,4.03978766781,-7.3658396393e-09,1.22168499661e-08,0.76035353778,0.649509428404,"(0.0, 0.0, 0.0, 0.0, 0.0, 0.0, 0.0, 0.0, 0.0, 0.0, 0.0, 0.0, 0.0, 0.0, 0.0, 0.0, 0.0, 0.0, 0.0, 0.0, 0.0, 0.0, 0.0, 0.0, 0.0, 0.0, 0.0, 0.0, 0.0, 0.0, 0.0, 0.0, 0.0, 0.0, 0.0, 0.0)"
1969/12/31/19:00:42.550000,4173,42,550000000,world,10.0000000026,-5.37670569318e-09,4.03978766731,-7.73957366342e-09,9.61993338797e-09,0.760353537813,0.649509428365,"(0.0, 0.0, 0.0, 0.0, 0.0, 0.0, 0.0, 0.0, 0.0, 0.0, 0.0, 0.0, 0.0, 0.0, 0.0, 0.0, 0.0, 0.0, 0.0, 0.0, 0.0, 0.0, 0.0, 0.0, 0.0, 0.0, 0.0, 0.0, 0.0, 0.0, 0.0, 0.0, 0.0, 0.0, 0.0, 0.0)"
1969/12/31/19:00:42.560000,4174,42,560000000,world,10.0000000027,-4.70476629216e-09,4.03978766679,-8.1484080192e-09,6.90353718135e-09,0.760353537847,0.649509428326,"(0.0, 0.0, 0.0, 0.0, 0.0, 0.0, 0.0, 0.0, 0.0, 0.0, 0.0, 0.0, 0.0, 0.0, 0.0, 0.0, 0.0, 0.0, 0.0, 0.0, 0.0, 0.0, 0.0, 0.0, 0.0, 0.0, 0.0, 0.0, 0.0, 0.0, 0.0, 0.0, 0.0, 0.0, 0.0, 0.0)"
1969/12/31/19:00:42.570000,4175,42,570000000,world,10.0000000027,-4.01236249567e-09,4.03978766624,-8.58061158641e-09,4.10733704503e-09,0.76035353788,0.649509428287,"(0.0, 0.0, 0.0, 0.0, 0.0, 0.0, 0.0, 0.0, 0.0, 0.0, 0.0, 0.0, 0.0, 0.0, 0.0, 0.0, 0.0, 0.0, 0.0, 0.0, 0.0, 0.0, 0.0, 0.0, 0.0, 0.0, 0.0, 0.0, 0.0, 0.0, 0.0, 0.0, 0.0, 0.0, 0.0, 0.0)"
1969/12/31/19:00:42.580000,4176,42,580000000,world,10.0000000028,-3.30319277552e-09,4.03978766565,-9.02827588956e-09,1.25798146303e-09,0.760353537913,0.649509428248,"(0.0, 0.0, 0.0, 0.0, 0.0, 0.0, 0.0, 0.0, 0.0, 0.0, 0.0, 0.0, 0.0, 0.0, 0.0, 0.0, 0.0, 0.0, 0.0, 0.0, 0.0, 0.0, 0.0, 0.0, 0.0, 0.0, 0.0, 0.0, 0.0, 0.0, 0.0, 0.0, 0.0, 0.0, 0.0, 0.0)"
1969/12/31/19:00:42.590000,4177,42,590000000,world,10.0000000029,-2.58095670099e-09,4.03978766505,-9.34702812535e-09,-1.5588735907e-09,0.760353537946,0.64950942821,"(0.0, 0.0, 0.0, 0.0, 0.0, 0.0, 0.0, 0.0, 0.0, 0.0, 0.0, 0.0, 0.0, 0.0, 0.0, 0.0, 0.0, 0.0, 0.0, 0.0, 0.0, 0.0, 0.0, 0.0, 0.0, 0.0, 0.0, 0.0, 0.0, 0.0, 0.0, 0.0, 0.0, 0.0, 0.0, 0.0)"
1969/12/31/19:00:42.600000,4178,42,600000000,world,10.0000000029,-1.84948659774e-09,4.03978766447,-9.47063709862e-09,-4.30012409933e-09,0.760353537979,0.649509428171,"(0.0, 0.0, 0.0, 0.0, 0.0, 0.0, 0.0, 0.0, 0.0, 0.0, 0.0, 0.0, 0.0, 0.0, 0.0, 0.0, 0.0, 0.0, 0.0, 0.0, 0.0, 0.0, 0.0, 0.0, 0.0, 0.0, 0.0, 0.0, 0.0, 0.0, 0.0, 0.0, 0.0, 0.0, 0.0, 0.0)"
1969/12/31/19:00:42.610000,4179,42,610000000,world,10.0000000029,-1.11275018461e-09,4.03978766391,-9.36848607326e-09,-6.94397008845e-09,0.760353538012,0.649509428133,"(0.0, 0.0, 0.0, 0.0, 0.0, 0.0, 0.0, 0.0, 0.0, 0.0, 0.0, 0.0, 0.0, 0.0, 0.0, 0.0, 0.0, 0.0, 0.0, 0.0, 0.0, 0.0, 0.0, 0.0, 0.0, 0.0, 0.0, 0.0, 0.0, 0.0, 0.0, 0.0, 0.0, 0.0, 0.0, 0.0)"
1969/12/31/19:00:42.620000,4180,42,620000000,world,10.0000000029,-3.74850115216e-10,4.03978766337,-9.02655677259e-09,-9.47969891011e-09,0.760353538045,0.649509428094,"(0.0, 0.0, 0.0, 0.0, 0.0, 0.0, 0.0, 0.0, 0.0, 0.0, 0.0, 0.0, 0.0, 0.0, 0.0, 0.0, 0.0, 0.0, 0.0, 0.0, 0.0, 0.0, 0.0, 0.0, 0.0, 0.0, 0.0, 0.0, 0.0, 0.0, 0.0, 0.0, 0.0, 0.0, 0.0, 0.0)"
1969/12/31/19:00:42.620000,4181,42,630000000,world,10.0000000029,3.59877485985e-10,4.03978766287,-8.45532430434e-09,-1.18258195414e-08,0.760353538076,0.649509428057,"(0.0, 0.0, 0.0, 0.0, 0.0, 0.0, 0.0, 0.0, 0.0, 0.0, 0.0, 0.0, 0.0, 0.0, 0.0, 0.0, 0.0, 0.0, 0.0, 0.0, 0.0, 0.0, 0.0, 0.0, 0.0, 0.0, 0.0, 0.0, 0.0, 0.0, 0.0, 0.0, 0.0, 0.0, 0.0, 0.0)"
1969/12/31/19:00:42.630000,4182,42,640000000,world,10.0000000028,1.08713357672e-09,4.03978766242,-7.65944540244e-09,-1.39447060589e-08,0.760353538105,0.649509428024,"(0.0, 0.0, 0.0, 0.0, 0.0, 0.0, 0.0, 0.0, 0.0, 0.0, 0.0, 0.0, 0.0, 0.0, 0.0, 0.0, 0.0, 0.0, 0.0, 0.0, 0.0, 0.0, 0.0, 0.0, 0.0, 0.0, 0.0, 0.0, 0.0, 0.0, 0.0, 0.0, 0.0, 0.0, 0.0, 0.0)"
1969/12/31/19:00:42.650000,4183,42,650000000,world,10.0000000027,1.80269255208e-09,4.03978766202,-6.64063585943e-09,-1.58182986252e-08,0.760353538131,0.649509427993,"(0.0, 0.0, 0.0, 0.0, 0.0, 0.0, 0.0, 0.0, 0.0, 0.0, 0.0, 0.0, 0.0, 0.0, 0.0, 0.0, 0.0, 0.0, 0.0, 0.0, 0.0, 0.0, 0.0, 0.0, 0.0, 0.0, 0.0, 0.0, 0.0, 0.0, 0.0, 0.0, 0.0, 0.0, 0.0, 0.0)"
1969/12/31/19:00:42.650000,4184,42,660000000,world,10.0000000026,2.50242254529e-09,4.03978766168,-5.39928563889e-09,-1.7437937021e-08,0.760353538154,0.649509427966,"(0.0, 0.0, 0.0, 0.0, 0.0, 0.0, 0.0, 0.0, 0.0, 0.0, 0.0, 0.0, 0.0, 0.0, 0.0, 0.0, 0.0, 0.0, 0.0, 0.0, 0.0, 0.0, 0.0, 0.0, 0.0, 0.0, 0.0, 0.0, 0.0, 0.0, 0.0, 0.0, 0.0, 0.0, 0.0, 0.0)"
1969/12/31/19:00:42.670000,4185,42,670000000,world,10.0000000024,3.18229629713e-09,4.0397876614,-3.93562858542e-09,-1.87999993768e-08,0.760353538174,0.649509427942,"(0.0, 0.0, 0.0, 0.0, 0.0, 0.0, 0.0, 0.0, 0.0, 0.0, 0.0, 0.0, 0.0, 0.0, 0.0, 0.0, 0.0, 0.0, 0.0, 0.0, 0.0, 0.0, 0.0, 0.0, 0.0, 0.0, 0.0, 0.0, 0.0, 0.0, 0.0, 0.0, 0.0, 0.0, 0.0, 0.0)"
1969/12/31/19:00:42.680000,4186,42,680000000,world,10.0000000022,3.83839615564e-09,4.03978766117,-2.25031290379e-09,-1.99033909268e-08,0.760353538192,0.649509427922,"(0.0, 0.0, 0.0, 0.0, 0.0, 0.0, 0.0, 0.0, 0.0, 0.0, 0.0, 0.0, 0.0, 0.0, 0.0, 0.0, 0.0, 0.0, 0.0, 0.0, 0.0, 0.0, 0.0, 0.0, 0.0, 0.0, 0.0, 0.0, 0.0, 0.0, 0.0, 0.0, 0.0, 0.0, 0.0, 0.0)"
1969/12/31/19:00:42.700000,4187,42,690000000,world,10.000000002,4.46687007688e-09,4.03978766099,-3.90783976021e-10,-2.07450391012e-08,0.760353538207,0.649509427904,"(0.0, 0.0, 0.0, 0.0, 0.0, 0.0, 0.0, 0.0, 0.0, 0.0, 0.0, 0.0, 0.0, 0.0, 0.0, 0.0, 0.0, 0.0, 0.0, 0.0, 0.0, 0.0, 0.0, 0.0, 0.0, 0.0, 0.0, 0.0, 0.0, 0.0, 0.0, 0.0, 0.0, 0.0, 0.0, 0.0)"
1969/12/31/19:00:42.700000,4188,42,700000000,world,10.0000000018,5.06405077908e-09,4.03978766085,1.61135718898e-09,-2.13226849309e-08,0.760353538221,0.649509427888,"(0.0, 0.0, 0.0, 0.0, 0.0, 0.0, 0.0, 0.0, 0.0, 0.0, 0.0, 0.0, 0.0, 0.0, 0.0, 0.0, 0.0, 0.0, 0.0, 0.0, 0.0, 0.0, 0.0, 0.0, 0.0, 0.0, 0.0, 0.0, 0.0, 0.0, 0.0, 0.0, 0.0, 0.0, 0.0, 0.0)"
1969/12/31/19:00:42.710000,4189,42,710000000,world,10.0000000015,5.6264950582e-09,4.03978766073,3.73550045225e-09,-2.16346935424e-08,0.760353538234,0.649509427873,"(0.0, 0.0, 0.0, 0.0, 0.0, 0.0, 0.0, 0.0, 0.0, 0.0, 0.0, 0.0, 0.0, 0.0, 0.0, 0.0, 0.0, 0.0, 0.0, 0.0, 0.0, 0.0, 0.0, 0.0, 0.0, 0.0, 0.0, 0.0, 0.0, 0.0, 0.0, 0.0, 0.0, 0.0, 0.0, 0.0)"
1969/12/31/19:00:42.720000,4190,42,720000000,world,10.0000000012,6.15101030268e-09,4.03978766065,5.96810161739e-09,-2.16802553047e-08,0.760353538246,0.649509427858,"(0.0, 0.0, 0.0, 0.0, 0.0, 0.0, 0.0, 0.0, 0.0, 0.0, 0.0, 0.0, 0.0, 0.0, 0.0, 0.0, 0.0, 0.0, 0.0, 0.0, 0.0, 0.0, 0.0, 0.0, 0.0, 0.0, 0.0, 0.0, 0.0, 0.0, 0.0, 0.0, 0.0, 0.0, 0.0, 0.0)"
1969/12/31/19:00:42.730000,4191,42,730000000,world,10.0000000009,6.63467145405e-09,4.03978766059,8.29970323397e-09,-2.14592340695e-08,0.760353538258,0.649509427844,"(0.0, 0.0, 0.0, 0.0, 0.0, 0.0, 0.0, 0.0, 0.0, 0.0, 0.0, 0.0, 0.0, 0.0, 0.0, 0.0, 0.0, 0.0, 0.0, 0.0, 0.0, 0.0, 0.0, 0.0, 0.0, 0.0, 0.0, 0.0, 0.0, 0.0, 0.0, 0.0, 0.0, 0.0, 0.0, 0.0)"
1969/12/31/19:00:42.740000,4192,42,740000000,world,10.0000000006,7.07483231736e-09,4.03978766055,1.0723290542e-08,-2.09716237339e-08,0.76035353827,0.64950942783,"(0.0, 0.0, 0.0, 0.0, 0.0, 0.0, 0.0, 0.0, 0.0, 0.0, 0.0, 0.0, 0.0, 0.0, 0.0, 0.0, 0.0, 0.0, 0.0, 0.0, 0.0, 0.0, 0.0, 0.0, 0.0, 0.0, 0.0, 0.0, 0.0, 0.0, 0.0, 0.0, 0.0, 0.0, 0.0, 0.0)"
1969/12/31/19:00:42.760000,4193,42,750000000,world,10.0000000003,7.46906950274e-09,4.03978766055,1.31194458985e-08,-2.02554636289e-08,0.760353538282,0.649509427816,"(0.0, 0.0, 0.0, 0.0, 0.0, 0.0, 0.0, 0.0, 0.0, 0.0, 0.0, 0.0, 0.0, 0.0, 0.0, 0.0, 0.0, 0.0, 0.0, 0.0, 0.0, 0.0, 0.0, 0.0, 0.0, 0.0, 0.0, 0.0, 0.0, 0.0, 0.0, 0.0, 0.0, 0.0, 0.0, 0.0)"
1969/12/31/19:00:42.760000,4194,42,760000000,world,9.99999999993,7.81537040017e-09,4.03978766058,1.54257941716e-08,-1.93371981574e-08,0.760353538295,0.649509427801,"(0.0, 0.0, 0.0, 0.0, 0.0, 0.0, 0.0, 0.0, 0.0, 0.0, 0.0, 0.0, 0.0, 0.0, 0.0, 0.0, 0.0, 0.0, 0.0, 0.0, 0.0, 0.0, 0.0, 0.0, 0.0, 0.0, 0.0, 0.0, 0.0, 0.0, 0.0, 0.0, 0.0, 0.0, 0.0, 0.0)"
1969/12/31/19:00:42.760000,4195,42,770000000,world,9.99999999958,8.11215414301e-09,4.03978766063,1.7608874132e-08,-1.82353211913e-08,0.760353538308,0.649509427786,"(0.0, 0.0, 0.0, 0.0, 0.0, 0.0, 0.0, 0.0, 0.0, 0.0, 0.0, 0.0, 0.0, 0.0, 0.0, 0.0, 0.0, 0.0, 0.0, 0.0, 0.0, 0.0, 0.0, 0.0, 0.0, 0.0, 0.0, 0.0, 0.0, 0.0, 0.0, 0.0, 0.0, 0.0, 0.0, 0.0)"
1969/12/31/19:00:42.780000,4196,42,780000000,world,9.99999999924,8.35827888191e-09,4.03978766071,1.96498275542e-08,-1.69627983052e-08,0.760353538322,0.64950942777,"(0.0, 0.0, 0.0, 0.0, 0.0, 0.0, 0.0, 0.0, 0.0, 0.0, 0.0, 0.0, 0.0, 0.0, 0.0, 0.0, 0.0, 0.0, 0.0, 0.0, 0.0, 0.0, 0.0, 0.0, 0.0, 0.0, 0.0, 0.0, 0.0, 0.0, 0.0, 0.0, 0.0, 0.0, 0.0, 0.0)"
1969/12/31/19:00:42.790000,4197,42,790000000,world,9.9999999989,8.55304318615e-09,4.03978766082,2.15371441806e-08,-1.55283891923e-08,0.760353538336,0.649509427753,"(0.0, 0.0, 0.0, 0.0, 0.0, 0.0, 0.0, 0.0, 0.0, 0.0, 0.0, 0.0, 0.0, 0.0, 0.0, 0.0, 0.0, 0.0, 0.0, 0.0, 0.0, 0.0, 0.0, 0.0, 0.0, 0.0, 0.0, 0.0, 0.0, 0.0, 0.0, 0.0, 0.0, 0.0, 0.0, 0.0)"
1969/12/31/19:00:42.800000,4198,42,800000000,world,9.99999999858,8.69618667442e-09,4.03978766095,2.32634157405e-08,-1.39375953505e-08,0.76035353835,0.649509427737,"(0.0, 0.0, 0.0, 0.0, 0.0, 0.0, 0.0, 0.0, 0.0, 0.0, 0.0, 0.0, 0.0, 0.0, 0.0, 0.0, 0.0, 0.0, 0.0, 0.0, 0.0, 0.0, 0.0, 0.0, 0.0, 0.0, 0.0, 0.0, 0.0, 0.0, 0.0, 0.0, 0.0, 0.0, 0.0, 0.0)"
1969/12/31/19:00:42.810000,4199,42,810000000,world,9.99999999828,8.78786622462e-09,4.03978766111,2.47163599316e-08,-1.22626263586e-08,0.760353538364,0.649509427721,"(0.0, 0.0, 0.0, 0.0, 0.0, 0.0, 0.0, 0.0, 0.0, 0.0, 0.0, 0.0, 0.0, 0.0, 0.0, 0.0, 0.0, 0.0, 0.0, 0.0, 0.0, 0.0, 0.0, 0.0, 0.0, 0.0, 0.0, 0.0, 0.0, 0.0, 0.0, 0.0, 0.0, 0.0, 0.0, 0.0)"
1969/12/31/19:00:42.830000,4200,42,820000000,world,9.99999999799,8.82871635834e-09,4.03978766131,2.58349130538e-08,-1.05363385166e-08,0.760353538377,0.649509427705,"(0.0, 0.0, 0.0, 0.0, 0.0, 0.0, 0.0, 0.0, 0.0, 0.0, 0.0, 0.0, 0.0, 0.0, 0.0, 0.0, 0.0, 0.0, 0.0, 0.0, 0.0, 0.0, 0.0, 0.0, 0.0, 0.0, 0.0, 0.0, 0.0, 0.0, 0.0, 0.0, 0.0, 0.0, 0.0, 0.0)"
1969/12/31/19:00:42.830000,4201,42,830000000,world,9.99999999773,8.81987778355e-09,4.03978766153,2.65846032411e-08,-8.77419690442e-09,0.760353538389,0.649509427691,"(0.0, 0.0, 0.0, 0.0, 0.0, 0.0, 0.0, 0.0, 0.0, 0.0, 0.0, 0.0, 0.0, 0.0, 0.0, 0.0, 0.0, 0.0, 0.0, 0.0, 0.0, 0.0, 0.0, 0.0, 0.0, 0.0, 0.0, 0.0, 0.0, 0.0, 0.0, 0.0, 0.0, 0.0, 0.0, 0.0)"
1969/12/31/19:00:42.840000,4202,42,840000000,world,9.9999999975,8.76307531675e-09,4.03978766176,2.69548999364e-08,-7.02916681234e-09,0.760353538402,0.649509427676,"(0.0, 0.0, 0.0, 0.0, 0.0, 0.0, 0.0, 0.0, 0.0, 0.0, 0.0, 0.0, 0.0, 0.0, 0.0, 0.0, 0.0, 0.0, 0.0, 0.0, 0.0, 0.0, 0.0, 0.0, 0.0, 0.0, 0.0, 0.0, 0.0, 0.0, 0.0, 0.0, 0.0, 0.0, 0.0, 0.0)"
1969/12/31/19:00:42.840000,4203,42,850000000,world,9.9999999973,8.66048255493e-09,4.03978766201,2.69398070847e-08,-5.33487463076e-09,0.760353538416,0.649509427659,"(0.0, 0.0, 0.0, 0.0, 0.0, 0.0, 0.0, 0.0, 0.0, 0.0, 0.0, 0.0, 0.0, 0.0, 0.0, 0.0, 0.0, 0.0, 0.0, 0.0, 0.0, 0.0, 0.0, 0.0, 0.0, 0.0, 0.0, 0.0, 0.0, 0.0, 0.0, 0.0, 0.0, 0.0, 0.0, 0.0)"
1969/12/31/19:00:42.840000,4204,42,860000000,world,9.99999999714,8.51468520076e-09,4.03978766225,2.65360847806e-08,-3.71261730939e-09,0.760353538432,0.64950942764,"(0.0, 0.0, 0.0, 0.0, 0.0, 0.0, 0.0, 0.0, 0.0, 0.0, 0.0, 0.0, 0.0, 0.0, 0.0, 0.0, 0.0, 0.0, 0.0, 0.0, 0.0, 0.0, 0.0, 0.0, 0.0, 0.0, 0.0, 0.0, 0.0, 0.0, 0.0, 0.0, 0.0, 0.0, 0.0, 0.0)"
1969/12/31/19:00:42.860000,4205,42,870000000,world,9.99999999701,8.32873098155e-09,4.0397876625,2.58172374512e-08,-2.18063668267e-09,0.760353538449,0.64950942762,"(0.0, 0.0, 0.0, 0.0, 0.0, 0.0, 0.0, 0.0, 0.0, 0.0, 0.0, 0.0, 0.0, 0.0, 0.0, 0.0, 0.0, 0.0, 0.0, 0.0, 0.0, 0.0, 0.0, 0.0, 0.0, 0.0, 0.0, 0.0, 0.0, 0.0, 0.0, 0.0, 0.0, 0.0, 0.0, 0.0)"
1969/12/31/19:00:42.880000,4206,42,880000000,world,9.99999999692,8.10590758151e-09,4.03978766277,2.48171389062e-08,-7.50484515283e-10,0.760353538466,0.649509427601,"(0.0, 0.0, 0.0, 0.0, 0.0, 0.0, 0.0, 0.0, 0.0, 0.0, 0.0, 0.0, 0.0, 0.0, 0.0, 0.0, 0.0, 0.0, 0.0, 0.0, 0.0, 0.0, 0.0, 0.0, 0.0, 0.0, 0.0, 0.0, 0.0, 0.0, 0.0, 0.0, 0.0, 0.0, 0.0, 0.0)"
1969/12/31/19:00:42.890000,4207,42,890000000,world,9.99999999686,7.84970017955e-09,4.03978766306,2.3551247758e-08,5.70191774551e-10,0.760353538483,0.649509427581,"(0.0, 0.0, 0.0, 0.0, 0.0, 0.0, 0.0, 0.0, 0.0, 0.0, 0.0, 0.0, 0.0, 0.0, 0.0, 0.0, 0.0, 0.0, 0.0, 0.0, 0.0, 0.0, 0.0, 0.0, 0.0, 0.0, 0.0, 0.0, 0.0, 0.0, 0.0, 0.0, 0.0, 0.0, 0.0, 0.0)"
1969/12/31/19:00:42.890000,4208,42,900000000,world,9.99999999684,7.563765646e-09,4.03978766338,2.20265638255e-08,1.77655650962e-09,0.7603535385,0.649509427561,"(0.0, 0.0, 0.0, 0.0, 0.0, 0.0, 0.0, 0.0, 0.0, 0.0, 0.0, 0.0, 0.0, 0.0, 0.0, 0.0, 0.0, 0.0, 0.0, 0.0, 0.0, 0.0, 0.0, 0.0, 0.0, 0.0, 0.0, 0.0, 0.0, 0.0, 0.0, 0.0, 0.0, 0.0, 0.0, 0.0)"
1969/12/31/19:00:42.900000,4209,42,910000000,world,9.99999999686,7.25191711517e-09,4.03978766371,2.02466203009e-08,2.86591921876e-09,0.760353538516,0.649509427542,"(0.0, 0.0, 0.0, 0.0, 0.0, 0.0, 0.0, 0.0, 0.0, 0.0, 0.0, 0.0, 0.0, 0.0, 0.0, 0.0, 0.0, 0.0, 0.0, 0.0, 0.0, 0.0, 0.0, 0.0, 0.0, 0.0, 0.0, 0.0, 0.0, 0.0, 0.0, 0.0, 0.0, 0.0, 0.0, 0.0)"
1969/12/31/19:00:42.930000,4210,42,920000000,world,9.99999999691,6.91816114662e-09,4.03978766406,1.82603613398e-08,3.83415056946e-09,0.760353538532,0.649509427523,"(0.0, 0.0, 0.0, 0.0, 0.0, 0.0, 0.0, 0.0, 0.0, 0.0, 0.0, 0.0, 0.0, 0.0, 0.0, 0.0, 0.0, 0.0, 0.0, 0.0, 0.0, 0.0, 0.0, 0.0, 0.0, 0.0, 0.0, 0.0, 0.0, 0.0, 0.0, 0.0, 0.0, 0.0, 0.0, 0.0)"
1969/12/31/19:00:42.930000,4211,42,930000000,world,9.99999999699,6.56657422732e-09,4.0397876644,1.61006413945e-08,4.6784620987e-09,0.760353538546,0.649509427507,"(0.0, 0.0, 0.0, 0.0, 0.0, 0.0, 0.0, 0.0, 0.0, 0.0, 0.0, 0.0, 0.0, 0.0, 0.0, 0.0, 0.0, 0.0, 0.0, 0.0, 0.0, 0.0, 0.0, 0.0, 0.0, 0.0, 0.0, 0.0, 0.0, 0.0, 0.0, 0.0, 0.0, 0.0, 0.0, 0.0)"
1969/12/31/19:00:42.940000,4212,42,940000000,world,9.99999999711,6.20125989423e-09,4.03978766474,1.37890118723e-08,5.39672196098e-09,0.760353538558,0.649509427493,"(0.0, 0.0, 0.0, 0.0, 0.0, 0.0, 0.0, 0.0, 0.0, 0.0, 0.0, 0.0, 0.0, 0.0, 0.0, 0.0, 0.0, 0.0, 0.0, 0.0, 0.0, 0.0, 0.0, 0.0, 0.0, 0.0, 0.0, 0.0, 0.0, 0.0, 0.0, 0.0, 0.0, 0.0, 0.0, 0.0)"
1969/12/31/19:00:42.950000,4213,42,950000000,world,9.99999999726,5.82631879122e-09,4.03978766507,1.13392393642e-08,5.98739118782e-09,0.760353538567,0.649509427482,"(0.0, 0.0, 0.0, 0.0, 0.0, 0.0, 0.0, 0.0, 0.0, 0.0, 0.0, 0.0, 0.0, 0.0, 0.0, 0.0, 0.0, 0.0, 0.0, 0.0, 0.0, 0.0, 0.0, 0.0, 0.0, 0.0, 0.0, 0.0, 0.0, 0.0, 0.0, 0.0, 0.0, 0.0, 0.0, 0.0)"
1969/12/31/19:00:42.960000,4214,42,960000000,world,9.99999999743,5.44582888263e-09,4.03978766539,8.7603579364e-09,6.44963478422e-09,0.760353538574,0.649509427474,"(0.0, 0.0, 0.0, 0.0, 0.0, 0.0, 0.0, 0.0, 0.0, 0.0, 0.0, 0.0, 0.0, 0.0, 0.0, 0.0, 0.0, 0.0, 0.0, 0.0, 0.0, 0.0, 0.0, 0.0, 0.0, 0.0, 0.0, 0.0, 0.0, 0.0, 0.0, 0.0, 0.0, 0.0, 0.0, 0.0)"
1969/12/31/19:00:42.970000,4215,42,970000000,world,9.99999999762,5.06382004903e-09,4.03978766569,6.09556983759e-09,6.82600700794e-09,0.760353538579,0.649509427468,"(0.0, 0.0, 0.0, 0.0, 0.0, 0.0, 0.0, 0.0, 0.0, 0.0, 0.0, 0.0, 0.0, 0.0, 0.0, 0.0, 0.0, 0.0, 0.0, 0.0, 0.0, 0.0, 0.0, 0.0, 0.0, 0.0, 0.0, 0.0, 0.0, 0.0, 0.0, 0.0, 0.0, 0.0, 0.0, 0.0)"
1969/12/31/19:00:42.980000,4216,42,980000000,world,9.99999999783,4.68439536772e-09,4.03978766597,3.39124194698e-09,7.06898028154e-09,0.760353538585,0.649509427462,"(0.0, 0.0, 0.0, 0.0, 0.0, 0.0, 0.0, 0.0, 0.0, 0.0, 0.0, 0.0, 0.0, 0.0, 0.0, 0.0, 0.0, 0.0, 0.0, 0.0, 0.0, 0.0, 0.0, 0.0, 0.0, 0.0, 0.0, 0.0, 0.0, 0.0, 0.0, 0.0, 0.0, 0.0, 0.0, 0.0)"
1969/12/31/19:00:42.990000,4217,42,990000000,world,9.99999999805,4.31146343676e-09,4.03978766624,6.74867536329e-10,7.16338457048e-09,0.760353538592,0.649509427454,"(0.0, 0.0, 0.0, 0.0, 0.0, 0.0, 0.0, 0.0, 0.0, 0.0, 0.0, 0.0, 0.0, 0.0, 0.0, 0.0, 0.0, 0.0, 0.0, 0.0, 0.0, 0.0, 0.0, 0.0, 0.0, 0.0, 0.0, 0.0, 0.0, 0.0, 0.0, 0.0, 0.0, 0.0, 0.0, 0.0)"
1969/12/31/19:00:43.000000,4218,43,0,world,9.99999999829,3.94870517247e-09,4.0397876665,-2.03743223713e-09,7.10651536375e-09,0.760353538601,0.649509427443,"(0.0, 0.0, 0.0, 0.0, 0.0, 0.0, 0.0, 0.0, 0.0, 0.0, 0.0, 0.0, 0.0, 0.0, 0.0, 0.0, 0.0, 0.0, 0.0, 0.0, 0.0, 0.0, 0.0, 0.0, 0.0, 0.0, 0.0, 0.0, 0.0, 0.0, 0.0, 0.0, 0.0, 0.0, 0.0, 0.0)"
1969/12/31/19:00:43.010000,4219,43,10000000,world,9.99999999853,3.59963568196e-09,4.03978766676,-4.65851011128e-09,6.89554488719e-09,0.760353538611,0.649509427431,"(0.0, 0.0, 0.0, 0.0, 0.0, 0.0, 0.0, 0.0, 0.0, 0.0, 0.0, 0.0, 0.0, 0.0, 0.0, 0.0, 0.0, 0.0, 0.0, 0.0, 0.0, 0.0, 0.0, 0.0, 0.0, 0.0, 0.0, 0.0, 0.0, 0.0, 0.0, 0.0, 0.0, 0.0, 0.0, 0.0)"
1969/12/31/19:00:43.020000,4220,43,20000000,world,9.99999999878,3.26738605202e-09,4.03978766705,-7.14744656546e-09,6.53135306127e-09,0.760353538622,0.649509427419,"(0.0, 0.0, 0.0, 0.0, 0.0, 0.0, 0.0, 0.0, 0.0, 0.0, 0.0, 0.0, 0.0, 0.0, 0.0, 0.0, 0.0, 0.0, 0.0, 0.0, 0.0, 0.0, 0.0, 0.0, 0.0, 0.0, 0.0, 0.0, 0.0, 0.0, 0.0, 0.0, 0.0, 0.0, 0.0, 0.0)"
1969/12/31/19:00:43.030000,4221,43,30000000,world,9.99999999902,2.95467423383e-09,4.03978766735,-9.48403476196e-09,6.01570966809e-09,0.760353538632,0.649509427406,"(0.0, 0.0, 0.0, 0.0, 0.0, 0.0, 0.0, 0.0, 0.0, 0.0, 0.0, 0.0, 0.0, 0.0, 0.0, 0.0, 0.0, 0.0, 0.0, 0.0, 0.0, 0.0, 0.0, 0.0, 0.0, 0.0, 0.0, 0.0, 0.0, 0.0, 0.0, 0.0, 0.0, 0.0, 0.0, 0.0)"
1969/12/31/19:00:43.040000,4222,43,40000000,world,9.99999999926,2.66378911923e-09,4.03978766767,-1.16577921426e-08,5.35011928923e-09,0.760353538643,0.649509427394,"(0.0, 0.0, 0.0, 0.0, 0.0, 0.0, 0.0, 0.0, 0.0, 0.0, 0.0, 0.0, 0.0, 0.0, 0.0, 0.0, 0.0, 0.0, 0.0, 0.0, 0.0, 0.0, 0.0, 0.0, 0.0, 0.0, 0.0, 0.0, 0.0, 0.0, 0.0, 0.0, 0.0, 0.0, 0.0, 0.0)"
1969/12/31/19:00:43.050000,4223,43,50000000,world,9.99999999949,2.396605953e-09,4.03978766802,-1.35557874045e-08,4.60450201326e-09,0.760353538654,0.649509427381,"(0.0, 0.0, 0.0, 0.0, 0.0, 0.0, 0.0, 0.0, 0.0, 0.0, 0.0, 0.0, 0.0, 0.0, 0.0, 0.0, 0.0, 0.0, 0.0, 0.0, 0.0, 0.0, 0.0, 0.0, 0.0, 0.0, 0.0, 0.0, 0.0, 0.0, 0.0, 0.0, 0.0, 0.0, 0.0, 0.0)"
1969/12/31/19:00:43.060000,4224,43,60000000,world,9.9999999997,2.15452177133e-09,4.0397876684,-1.51172906885e-08,3.81021153508e-09,0.760353538665,0.649509427367,"(0.0, 0.0, 0.0, 0.0, 0.0, 0.0, 0.0, 0.0, 0.0, 0.0, 0.0, 0.0, 0.0, 0.0, 0.0, 0.0, 0.0, 0.0, 0.0, 0.0, 0.0, 0.0, 0.0, 0.0, 0.0, 0.0, 0.0, 0.0, 0.0, 0.0, 0.0, 0.0, 0.0, 0.0, 0.0, 0.0)"
1969/12/31/19:00:43.080000,4225,43,70000000,world,9.99999999989,1.93842466156e-09,4.03978766882,-1.63083865692e-08,2.98148840065e-09,0.760353538678,0.649509427353,"(0.0, 0.0, 0.0, 0.0, 0.0, 0.0, 0.0, 0.0, 0.0, 0.0, 0.0, 0.0, 0.0, 0.0, 0.0, 0.0, 0.0, 0.0, 0.0, 0.0, 0.0, 0.0, 0.0, 0.0, 0.0, 0.0, 0.0, 0.0, 0.0, 0.0, 0.0, 0.0, 0.0, 0.0, 0.0, 0.0)"
1969/12/31/19:00:43.080000,4226,43,80000000,world,10.0000000001,1.74861398769e-09,4.03978766924,-1.71189810268e-08,2.17033436887e-09,0.76035353869,0.649509427339,"(0.0, 0.0, 0.0, 0.0, 0.0, 0.0, 0.0, 0.0, 0.0, 0.0, 0.0, 0.0, 0.0, 0.0, 0.0, 0.0, 0.0, 0.0, 0.0, 0.0, 0.0, 0.0, 0.0, 0.0, 0.0, 0.0, 0.0, 0.0, 0.0, 0.0, 0.0, 0.0, 0.0, 0.0, 0.0, 0.0)"
1969/12/31/19:00:43.090000,4227,43,90000000,world,10.0000000002,1.58493403947e-09,4.03978766967,-1.75433132572e-08,1.40986411738e-09,0.7603535387,0.649509427326,"(0.0, 0.0, 0.0, 0.0, 0.0, 0.0, 0.0, 0.0, 0.0, 0.0, 0.0, 0.0, 0.0, 0.0, 0.0, 0.0, 0.0, 0.0, 0.0, 0.0, 0.0, 0.0, 0.0, 0.0, 0.0, 0.0, 0.0, 0.0, 0.0, 0.0, 0.0, 0.0, 0.0, 0.0, 0.0, 0.0)"
1969/12/31/19:00:43.100000,4228,43,100000000,world,10.0000000003,1.4468097357e-09,4.0397876701,-1.75782323327e-08,7.21355090111e-10,0.760353538709,0.649509427316,"(0.0, 0.0, 0.0, 0.0, 0.0, 0.0, 0.0, 0.0, 0.0, 0.0, 0.0, 0.0, 0.0, 0.0, 0.0, 0.0, 0.0, 0.0, 0.0, 0.0, 0.0, 0.0, 0.0, 0.0, 0.0, 0.0, 0.0, 0.0, 0.0, 0.0, 0.0, 0.0, 0.0, 0.0, 0.0, 0.0)"
1969/12/31/19:00:43.110000,4229,43,110000000,world,10.0000000004,1.33327155224e-09,4.03978767052,-1.72223361885e-08,1.18808603667e-10,0.760353538715,0.649509427309,"(0.0, 0.0, 0.0, 0.0, 0.0, 0.0, 0.0, 0.0, 0.0, 0.0, 0.0, 0.0, 0.0, 0.0, 0.0, 0.0, 0.0, 0.0, 0.0, 0.0, 0.0, 0.0, 0.0, 0.0, 0.0, 0.0, 0.0, 0.0, 0.0, 0.0, 0.0, 0.0, 0.0, 0.0, 0.0, 0.0)"
1969/12/31/19:00:43.130000,4230,43,120000000,world,10.0000000005,1.24289889346e-09,4.03978767095,-1.6550934218e-08,-3.83868912898e-10,0.760353538721,0.649509427302,"(0.0, 0.0, 0.0, 0.0, 0.0, 0.0, 0.0, 0.0, 0.0, 0.0, 0.0, 0.0, 0.0, 0.0, 0.0, 0.0, 0.0, 0.0, 0.0, 0.0, 0.0, 0.0, 0.0, 0.0, 0.0, 0.0, 0.0, 0.0, 0.0, 0.0, 0.0, 0.0, 0.0, 0.0, 0.0, 0.0)"
1969/12/31/19:00:43.130000,4231,43,130000000,world,10.0000000006,1.17404131992e-09,4.03978767139,-1.55982742971e-08,-7.78307910975e-10,0.760353538726,0.649509427296,"(0.0, 0.0, 0.0, 0.0, 0.0, 0.0, 0.0, 0.0, 0.0, 0.0, 0.0, 0.0, 0.0, 0.0, 0.0, 0.0, 0.0, 0.0, 0.0, 0.0, 0.0, 0.0, 0.0, 0.0, 0.0, 0.0, 0.0, 0.0, 0.0, 0.0, 0.0, 0.0, 0.0, 0.0, 0.0, 0.0)"
1969/12/31/19:00:43.130000,4232,43,140000000,world,10.0000000006,1.12485660199e-09,4.03978767186,-1.43799637465e-08,-1.05954042557e-09,0.760353538732,0.64950942729,"(0.0, 0.0, 0.0, 0.0, 0.0, 0.0, 0.0, 0.0, 0.0, 0.0, 0.0, 0.0, 0.0, 0.0, 0.0, 0.0, 0.0, 0.0, 0.0, 0.0, 0.0, 0.0, 0.0, 0.0, 0.0, 0.0, 0.0, 0.0, 0.0, 0.0, 0.0, 0.0, 0.0, 0.0, 0.0, 0.0)"
1969/12/31/19:00:43.160000,4233,43,150000000,world,10.0000000006,1.09329829903e-09,4.03978767232,-1.29866471632e-08,-1.26477884262e-09,0.760353538737,0.649509427284,"(0.0, 0.0, 0.0, 0.0, 0.0, 0.0, 0.0, 0.0, 0.0, 0.0, 0.0, 0.0, 0.0, 0.0, 0.0, 0.0, 0.0, 0.0, 0.0, 0.0, 0.0, 0.0, 0.0, 0.0, 0.0, 0.0, 0.0, 0.0, 0.0, 0.0, 0.0, 0.0, 0.0, 0.0, 0.0, 0.0)"
1969/12/31/19:00:43.160000,4234,43,160000000,world,10.0000000006,1.07721381608e-09,4.03978767277,-1.14780280316e-08,-1.41907969368e-09,0.760353538742,0.649509427278,"(0.0, 0.0, 0.0, 0.0, 0.0, 0.0, 0.0, 0.0, 0.0, 0.0, 0.0, 0.0, 0.0, 0.0, 0.0, 0.0, 0.0, 0.0, 0.0, 0.0, 0.0, 0.0, 0.0, 0.0, 0.0, 0.0, 0.0, 0.0, 0.0, 0.0, 0.0, 0.0, 0.0, 0.0, 0.0, 0.0)"
1969/12/31/19:00:43.170000,4235,43,170000000,world,10.0000000005,1.07438098954e-09,4.03978767318,-9.89355682561e-09,-1.53921366366e-09,0.760353538747,0.649509427271,"(0.0, 0.0, 0.0, 0.0, 0.0, 0.0, 0.0, 0.0, 0.0, 0.0, 0.0, 0.0, 0.0, 0.0, 0.0, 0.0, 0.0, 0.0, 0.0, 0.0, 0.0, 0.0, 0.0, 0.0, 0.0, 0.0, 0.0, 0.0, 0.0, 0.0, 0.0, 0.0, 0.0, 0.0, 0.0, 0.0)"
1969/12/31/19:00:43.180000,4236,43,180000000,world,10.0000000004,1.08253380591e-09,4.03978767355,-8.25905632348e-09,-1.63640762449e-09,0.760353538753,0.649509427265,"(0.0, 0.0, 0.0, 0.0, 0.0, 0.0, 0.0, 0.0, 0.0, 0.0, 0.0, 0.0, 0.0, 0.0, 0.0, 0.0, 0.0, 0.0, 0.0, 0.0, 0.0, 0.0, 0.0, 0.0, 0.0, 0.0, 0.0, 0.0, 0.0, 0.0, 0.0, 0.0, 0.0, 0.0, 0.0, 0.0)"
1969/12/31/19:00:43.190000,4237,43,190000000,world,10.0000000004,1.09937963853e-09,4.03978767389,-6.59134193932e-09,-1.71823910642e-09,0.760353538758,0.649509427259,"(0.0, 0.0, 0.0, 0.0, 0.0, 0.0, 0.0, 0.0, 0.0, 0.0, 0.0, 0.0, 0.0, 0.0, 0.0, 0.0, 0.0, 0.0, 0.0, 0.0, 0.0, 0.0, 0.0, 0.0, 0.0, 0.0, 0.0, 0.0, 0.0, 0.0, 0.0, 0.0, 0.0, 0.0, 0.0, 0.0)"
1969/12/31/19:00:43.200000,4238,43,200000000,world,10.0000000003,1.12261028338e-09,4.03978767417,-4.90165083434e-09,-1.78985622393e-09,0.760353538763,0.649509427253,"(0.0, 0.0, 0.0, 0.0, 0.0, 0.0, 0.0, 0.0, 0.0, 0.0, 0.0, 0.0, 0.0, 0.0, 0.0, 0.0, 0.0, 0.0, 0.0, 0.0, 0.0, 0.0, 0.0, 0.0, 0.0, 0.0, 0.0, 0.0, 0.0, 0.0, 0.0, 0.0, 0.0, 0.0, 0.0, 0.0)"
1969/12/31/19:00:43.220000,4239,43,210000000,world,10.0000000002,1.14990943749e-09,4.03978767441,-3.19789312961e-09,-1.85472459759e-09,0.760353538769,0.649509427247,"(0.0, 0.0, 0.0, 0.0, 0.0, 0.0, 0.0, 0.0, 0.0, 0.0, 0.0, 0.0, 0.0, 0.0, 0.0, 0.0, 0.0, 0.0, 0.0, 0.0, 0.0, 0.0, 0.0, 0.0, 0.0, 0.0, 0.0, 0.0, 0.0, 0.0, 0.0, 0.0, 0.0, 0.0, 0.0, 0.0)"
1969/12/31/19:00:43.230000,4240,43,220000000,world,10.0000000001,1.17895865665e-09,4.0397876746,-1.48570850122e-09,-1.91512270887e-09,0.760353538774,0.64950942724,"(0.0, 0.0, 0.0, 0.0, 0.0, 0.0, 0.0, 0.0, 0.0, 0.0, 0.0, 0.0, 0.0, 0.0, 0.0, 0.0, 0.0, 0.0, 0.0, 0.0, 0.0, 0.0, 0.0, 0.0, 0.0, 0.0, 0.0, 0.0, 0.0, 0.0, 0.0, 0.0, 0.0, 0.0, 0.0, 0.0)"
1969/12/31/19:00:43.230000,4241,43,230000000,world,9.99999999996,1.20744229698e-09,4.03978767473,2.31224836189e-10,-1.97253337713e-09,0.760353538779,0.649509427234,"(0.0, 0.0, 0.0, 0.0, 0.0, 0.0, 0.0, 0.0, 0.0, 0.0, 0.0, 0.0, 0.0, 0.0, 0.0, 0.0, 0.0, 0.0, 0.0, 0.0, 0.0, 0.0, 0.0, 0.0, 0.0, 0.0, 0.0, 0.0, 0.0, 0.0, 0.0, 0.0, 0.0, 0.0, 0.0, 0.0)"
1969/12/31/19:00:43.240000,4242,43,240000000,world,9.99999999984,1.23305077963e-09,4.03978767482,1.95090576632e-09,-2.02795789975e-09,0.760353538785,0.649509427228,"(0.0, 0.0, 0.0, 0.0, 0.0, 0.0, 0.0, 0.0, 0.0, 0.0, 0.0, 0.0, 0.0, 0.0, 0.0, 0.0, 0.0, 0.0, 0.0, 0.0, 0.0, 0.0, 0.0, 0.0, 0.0, 0.0, 0.0, 0.0, 0.0, 0.0, 0.0, 0.0, 0.0, 0.0, 0.0, 0.0)"
1969/12/31/19:00:43.250000,4243,43,250000000,world,9.99999999973,1.25348173959e-09,4.03978767485,3.67234906087e-09,-2.08211419129e-09,0.76035353879,0.649509427222,"(0.0, 0.0, 0.0, 0.0, 0.0, 0.0, 0.0, 0.0, 0.0, 0.0, 0.0, 0.0, 0.0, 0.0, 0.0, 0.0, 0.0, 0.0, 0.0, 0.0, 0.0, 0.0, 0.0, 0.0, 0.0, 0.0, 0.0, 0.0, 0.0, 0.0, 0.0, 0.0, 0.0, 0.0, 0.0, 0.0)"
1969/12/31/19:00:43.270000,4244,43,260000000,world,9.99999999962,1.26643979458e-09,4.03978767483,5.39477703785e-09,-2.13551139033e-09,0.760353538795,0.649509427215,"(0.0, 0.0, 0.0, 0.0, 0.0, 0.0, 0.0, 0.0, 0.0, 0.0, 0.0, 0.0, 0.0, 0.0, 0.0, 0.0, 0.0, 0.0, 0.0, 0.0, 0.0, 0.0, 0.0, 0.0, 0.0, 0.0, 0.0, 0.0, 0.0, 0.0, 0.0, 0.0, 0.0, 0.0, 0.0, 0.0)"
1969/12/31/19:00:43.270000,4245,43,270000000,world,9.99999999951,1.26963639655e-09,4.03978767476,7.11720267951e-09,-2.18846294985e-09,0.7603535388,0.649509427209,"(0.0, 0.0, 0.0, 0.0, 0.0, 0.0, 0.0, 0.0, 0.0, 0.0, 0.0, 0.0, 0.0, 0.0, 0.0, 0.0, 0.0, 0.0, 0.0, 0.0, 0.0, 0.0, 0.0, 0.0, 0.0, 0.0, 0.0, 0.0, 0.0, 0.0, 0.0, 0.0, 0.0, 0.0, 0.0, 0.0)"
1969/12/31/19:00:43.280000,4246,43,280000000,world,9.99999999941,1.26071303154e-09,4.03978767466,8.76081782136e-09,-2.23655743623e-09,0.760353538807,0.649509427201,"(0.0, 0.0, 0.0, 0.0, 0.0, 0.0, 0.0, 0.0, 0.0, 0.0, 0.0, 0.0, 0.0, 0.0, 0.0, 0.0, 0.0, 0.0, 0.0, 0.0, 0.0, 0.0, 0.0, 0.0, 0.0, 0.0, 0.0, 0.0, 0.0, 0.0, 0.0, 0.0, 0.0, 0.0, 0.0, 0.0)"
1969/12/31/19:00:43.290000,4247,43,290000000,world,9.99999999932,1.23745487353e-09,4.03978767453,1.02902399919e-08,-2.2778158382e-09,0.760353538817,0.64950942719,"(0.0, 0.0, 0.0, 0.0, 0.0, 0.0, 0.0, 0.0, 0.0, 0.0, 0.0, 0.0, 0.0, 0.0, 0.0, 0.0, 0.0, 0.0, 0.0, 0.0, 0.0, 0.0, 0.0, 0.0, 0.0, 0.0, 0.0, 0.0, 0.0, 0.0, 0.0, 0.0, 0.0, 0.0, 0.0, 0.0)"
1969/12/31/19:00:43.300000,4248,43,300000000,world,9.99999999924,1.19781816045e-09,4.03978767438,1.1690002733e-08,-2.31139197843e-09,0.760353538829,0.649509427176,"(0.0, 0.0, 0.0, 0.0, 0.0, 0.0, 0.0, 0.0, 0.0, 0.0, 0.0, 0.0, 0.0, 0.0, 0.0, 0.0, 0.0, 0.0, 0.0, 0.0, 0.0, 0.0, 0.0, 0.0, 0.0, 0.0, 0.0, 0.0, 0.0, 0.0, 0.0, 0.0, 0.0, 0.0, 0.0, 0.0)"
1969/12/31/19:00:43.310000,4249,43,310000000,world,9.99999999918,1.13994308855e-09,4.03978767421,1.29534612145e-08,-2.33696435811e-09,0.760353538843,0.649509427159,"(0.0, 0.0, 0.0, 0.0, 0.0, 0.0, 0.0, 0.0, 0.0, 0.0, 0.0, 0.0, 0.0, 0.0, 0.0, 0.0, 0.0, 0.0, 0.0, 0.0, 0.0, 0.0, 0.0, 0.0, 0.0, 0.0, 0.0, 0.0, 0.0, 0.0, 0.0, 0.0, 0.0, 0.0, 0.0, 0.0)"
1969/12/31/19:00:43.330000,4250,43,320000000,world,9.99999999913,1.06218101935e-09,4.03978767405,1.40163762214e-08,-2.42597505993e-09,0.76035353886,0.64950942714,"(0.0, 0.0, 0.0, 0.0, 0.0, 0.0, 0.0, 0.0, 0.0, 0.0, 0.0, 0.0, 0.0, 0.0, 0.0, 0.0, 0.0, 0.0, 0.0, 0.0, 0.0, 0.0, 0.0, 0.0, 0.0, 0.0, 0.0, 0.0, 0.0, 0.0, 0.0, 0.0, 0.0, 0.0, 0.0, 0.0)"
1969/12/31/19:00:43.330000,4251,43,330000000,world,9.9999999991,9.63040231708e-10,4.0397876739,1.48495656422e-08,-2.61041968378e-09,0.760353538876,0.649509427121,"(0.0, 0.0, 0.0, 0.0, 0.0, 0.0, 0.0, 0.0, 0.0, 0.0, 0.0, 0.0, 0.0, 0.0, 0.0, 0.0, 0.0, 0.0, 0.0, 0.0, 0.0, 0.0, 0.0, 0.0, 0.0, 0.0, 0.0, 0.0, 0.0, 0.0, 0.0, 0.0, 0.0, 0.0, 0.0, 0.0)"
1969/12/31/19:00:43.350000,4252,43,340000000,world,9.99999999909,8.41181628237e-10,4.03978767377,1.54398485954e-08,-2.90464200559e-09,0.760353538893,0.649509427101,"(0.0, 0.0, 0.0, 0.0, 0.0, 0.0, 0.0, 0.0, 0.0, 0.0, 0.0, 0.0, 0.0, 0.0, 0.0, 0.0, 0.0, 0.0, 0.0, 0.0, 0.0, 0.0, 0.0, 0.0, 0.0, 0.0, 0.0, 0.0, 0.0, 0.0, 0.0, 0.0, 0.0, 0.0, 0.0, 0.0)"
1969/12/31/19:00:43.350000,4253,43,350000000,world,9.9999999991,6.95416660571e-10,4.03978767366,1.57815951894e-08,-3.31509648415e-09,0.76035353891,0.649509427081,"(0.0, 0.0, 0.0, 0.0, 0.0, 0.0, 0.0, 0.0, 0.0, 0.0, 0.0, 0.0, 0.0, 0.0, 0.0, 0.0, 0.0, 0.0, 0.0, 0.0, 0.0, 0.0, 0.0, 0.0, 0.0, 0.0, 0.0, 0.0, 0.0, 0.0, 0.0, 0.0, 0.0, 0.0, 0.0, 0.0)"
1969/12/31/19:00:43.360000,4254,43,360000000,world,9.99999999913,5.247052708e-10,4.03978767356,1.58726455727e-08,-3.84459013174e-09,0.760353538927,0.649509427061,"(0.0, 0.0, 0.0, 0.0, 0.0, 0.0, 0.0, 0.0, 0.0, 0.0, 0.0, 0.0, 0.0, 0.0, 0.0, 0.0, 0.0, 0.0, 0.0, 0.0, 0.0, 0.0, 0.0, 0.0, 0.0, 0.0, 0.0, 0.0, 0.0, 0.0, 0.0, 0.0, 0.0, 0.0, 0.0, 0.0)"
1969/12/31/19:00:43.380000,4255,43,370000000,world,9.99999999918,3.28141141636e-10,4.03978767348,1.57492275178e-08,-4.45077744631e-09,0.760353538945,0.64950942704,"(0.0, 0.0, 0.0, 0.0, 0.0, 0.0, 0.0, 0.0, 0.0, 0.0, 0.0, 0.0, 0.0, 0.0, 0.0, 0.0, 0.0, 0.0, 0.0, 0.0, 0.0, 0.0, 0.0, 0.0, 0.0, 0.0, 0.0, 0.0, 0.0, 0.0, 0.0, 0.0, 0.0, 0.0, 0.0, 0.0)"
1969/12/31/19:00:43.380000,4256,43,380000000,world,9.99999999925,1.04884455899e-10,4.03978767341,1.54188599242e-08,-5.02910202624e-09,0.760353538963,0.649509427019,"(0.0, 0.0, 0.0, 0.0, 0.0, 0.0, 0.0, 0.0, 0.0, 0.0, 0.0, 0.0, 0.0, 0.0, 0.0, 0.0, 0.0, 0.0, 0.0, 0.0, 0.0, 0.0, 0.0, 0.0, 0.0, 0.0, 0.0, 0.0, 0.0, 0.0, 0.0, 0.0, 0.0, 0.0, 0.0, 0.0)"
1969/12/31/19:00:43.400000,4257,43,390000000,world,9.99999999934,-1.45558166696e-10,4.03978767337,1.48902303862e-08,-5.5264970528e-09,0.760353538981,0.649509426998,"(0.0, 0.0, 0.0, 0.0, 0.0, 0.0, 0.0, 0.0, 0.0, 0.0, 0.0, 0.0, 0.0, 0.0, 0.0, 0.0, 0.0, 0.0, 0.0, 0.0, 0.0, 0.0, 0.0, 0.0, 0.0, 0.0, 0.0, 0.0, 0.0, 0.0, 0.0, 0.0, 0.0, 0.0, 0.0, 0.0)"
1969/12/31/19:00:43.400000,4258,43,400000000,world,9.99999999944,-4.23293011404e-10,4.03978767335,1.41710108762e-08,-5.91503486028e-09,0.760353538998,0.649509426978,"(0.0, 0.0, 0.0, 0.0, 0.0, 0.0, 0.0, 0.0, 0.0, 0.0, 0.0, 0.0, 0.0, 0.0, 0.0, 0.0, 0.0, 0.0, 0.0, 0.0, 0.0, 0.0, 0.0, 0.0, 0.0, 0.0, 0.0, 0.0, 0.0, 0.0, 0.0, 0.0, 0.0, 0.0, 0.0, 0.0)"
1969/12/31/19:00:43.410000,4259,43,410000000,world,9.99999999955,-7.2801791361e-10,4.03978767336,1.32672800149e-08,-6.17930160392e-09,0.760353539015,0.649509426958,"(0.0, 0.0, 0.0, 0.0, 0.0, 0.0, 0.0, 0.0, 0.0, 0.0, 0.0, 0.0, 0.0, 0.0, 0.0, 0.0, 0.0, 0.0, 0.0, 0.0, 0.0, 0.0, 0.0, 0.0, 0.0, 0.0, 0.0, 0.0, 0.0, 0.0, 0.0, 0.0, 0.0, 0.0, 0.0, 0.0)"
1969/12/31/19:00:43.420000,4260,43,420000000,world,9.99999999968,-1.05901050192e-09,4.03978767339,1.21833911697e-08,-6.31039269631e-09,0.760353539032,0.649509426938,"(0.0, 0.0, 0.0, 0.0, 0.0, 0.0, 0.0, 0.0, 0.0, 0.0, 0.0, 0.0, 0.0, 0.0, 0.0, 0.0, 0.0, 0.0, 0.0, 0.0, 0.0, 0.0, 0.0, 0.0, 0.0, 0.0, 0.0, 0.0, 0.0, 0.0, 0.0, 0.0, 0.0, 0.0, 0.0, 0.0)"
1969/12/31/19:00:43.440000,4261,43,430000000,world,9.99999999982,-1.41507460862e-09,4.03978767342,1.09687718786e-08,-6.30579647329e-09,0.760353539048,0.64950942692,"(0.0, 0.0, 0.0, 0.0, 0.0, 0.0, 0.0, 0.0, 0.0, 0.0, 0.0, 0.0, 0.0, 0.0, 0.0, 0.0, 0.0, 0.0, 0.0, 0.0, 0.0, 0.0, 0.0, 0.0, 0.0, 0.0, 0.0, 0.0, 0.0, 0.0, 0.0, 0.0, 0.0, 0.0, 0.0, 0.0)"
1969/12/31/19:00:43.440000,4262,43,440000000,world,9.99999999996,-1.79465240228e-09,4.03978767347,9.65663833193e-09,-6.16427779718e-09,0.760353539062,0.649509426903,"(0.0, 0.0, 0.0, 0.0, 0.0, 0.0, 0.0, 0.0, 0.0, 0.0, 0.0, 0.0, 0.0, 0.0, 0.0, 0.0, 0.0, 0.0, 0.0, 0.0, 0.0, 0.0, 0.0, 0.0, 0.0, 0.0, 0.0, 0.0, 0.0, 0.0, 0.0, 0.0, 0.0, 0.0, 0.0, 0.0)"
1969/12/31/19:00:43.450000,4263,43,450000000,world,10.0000000001,-2.19585938674e-09,4.0397876735,8.26959854938e-09,-5.88523233029e-09,0.760353539073,0.64950942689,"(0.0, 0.0, 0.0, 0.0, 0.0, 0.0, 0.0, 0.0, 0.0, 0.0, 0.0, 0.0, 0.0, 0.0, 0.0, 0.0, 0.0, 0.0, 0.0, 0.0, 0.0, 0.0, 0.0, 0.0, 0.0, 0.0, 0.0, 0.0, 0.0, 0.0, 0.0, 0.0, 0.0, 0.0, 0.0, 0.0)"
1969/12/31/19:00:43.470000,4264,43,460000000,world,10.0000000003,-2.61651019127e-09,4.03978767353,6.82309443755e-09,-5.46829319117e-09,0.760353539083,0.649509426879,"(0.0, 0.0, 0.0, 0.0, 0.0, 0.0, 0.0, 0.0, 0.0, 0.0, 0.0, 0.0, 0.0, 0.0, 0.0, 0.0, 0.0, 0.0, 0.0, 0.0, 0.0, 0.0, 0.0, 0.0, 0.0, 0.0, 0.0, 0.0, 0.0, 0.0, 0.0, 0.0, 0.0, 0.0, 0.0, 0.0)"
1969/12/31/19:00:43.480000,4265,43,470000000,world,10.0000000004,-3.05413749359e-09,4.03978767355,5.32738069266e-09,-4.91322729386e-09,0.760353539089,0.649509426871,"(0.0, 0.0, 0.0, 0.0, 0.0, 0.0, 0.0, 0.0, 0.0, 0.0, 0.0, 0.0, 0.0, 0.0, 0.0, 0.0, 0.0, 0.0, 0.0, 0.0, 0.0, 0.0, 0.0, 0.0, 0.0, 0.0, 0.0, 0.0, 0.0, 0.0, 0.0, 0.0, 0.0, 0.0, 0.0, 0.0)"
1969/12/31/19:00:43.480000,4266,43,480000000,world,10.0000000006,-3.50600528824e-09,4.03978767355,3.78892360244e-09,-4.22000202357e-09,0.760353539093,0.649509426866,"(0.0, 0.0, 0.0, 0.0, 0.0, 0.0, 0.0, 0.0, 0.0, 0.0, 0.0, 0.0, 0.0, 0.0, 0.0, 0.0, 0.0, 0.0, 0.0, 0.0, 0.0, 0.0, 0.0, 0.0, 0.0, 0.0, 0.0, 0.0, 0.0, 0.0, 0.0, 0.0, 0.0, 0.0, 0.0, 0.0)"
1969/12/31/19:00:43.490000,4267,43,490000000,world,10.0000000008,-3.96905869847e-09,4.03978767353,2.22174519777e-09,-3.43436414166e-09,0.760353539095,0.649509426864,"(0.0, 0.0, 0.0, 0.0, 0.0, 0.0, 0.0, 0.0, 0.0, 0.0, 0.0, 0.0, 0.0, 0.0, 0.0, 0.0, 0.0, 0.0, 0.0, 0.0, 0.0, 0.0, 0.0, 0.0, 0.0, 0.0, 0.0, 0.0, 0.0, 0.0, 0.0, 0.0, 0.0, 0.0, 0.0, 0.0)"
1969/12/31/19:00:43.510000,4268,43,500000000,world,10.0000000009,-4.44007892863e-09,4.03978767347,6.35452134029e-10,-2.58696094733e-09,0.760353539096,0.649509426863,"(0.0, 0.0, 0.0, 0.0, 0.0, 0.0, 0.0, 0.0, 0.0, 0.0, 0.0, 0.0, 0.0, 0.0, 0.0, 0.0, 0.0, 0.0, 0.0, 0.0, 0.0, 0.0, 0.0, 0.0, 0.0, 0.0, 0.0, 0.0, 0.0, 0.0, 0.0, 0.0, 0.0, 0.0, 0.0, 0.0)"
1969/12/31/19:00:43.510000,4269,43,510000000,world,10.0000000011,-4.9157357851e-09,4.03978767338,-9.6301722201e-10,-1.69817418146e-09,0.760353539096,0.649509426863,"(0.0, 0.0, 0.0, 0.0, 0.0, 0.0, 0.0, 0.0, 0.0, 0.0, 0.0, 0.0, 0.0, 0.0, 0.0, 0.0, 0.0, 0.0, 0.0, 0.0, 0.0, 0.0, 0.0, 0.0, 0.0, 0.0, 0.0, 0.0, 0.0, 0.0, 0.0, 0.0, 0.0, 0.0, 0.0, 0.0)"
1969/12/31/19:00:43.520000,4270,43,520000000,world,10.0000000012,-5.39262520899e-09,4.03978767323,-2.56876494658e-09,-7.81584599509e-10,0.760353539096,0.649509426863,"(0.0, 0.0, 0.0, 0.0, 0.0, 0.0, 0.0, 0.0, 0.0, 0.0, 0.0, 0.0, 0.0, 0.0, 0.0, 0.0, 0.0, 0.0, 0.0, 0.0, 0.0, 0.0, 0.0, 0.0, 0.0, 0.0, 0.0, 0.0, 0.0, 0.0, 0.0, 0.0, 0.0, 0.0, 0.0, 0.0)"
1969/12/31/19:00:43.540000,4271,43,530000000,world,10.0000000014,-5.86729597368e-09,4.03978767304,-4.17879681931e-09,1.53577041222e-10,0.760353539095,0.649509426864,"(0.0, 0.0, 0.0, 0.0, 0.0, 0.0, 0.0, 0.0, 0.0, 0.0, 0.0, 0.0, 0.0, 0.0, 0.0, 0.0, 0.0, 0.0, 0.0, 0.0, 0.0, 0.0, 0.0, 0.0, 0.0, 0.0, 0.0, 0.0, 0.0, 0.0, 0.0, 0.0, 0.0, 0.0, 0.0, 0.0)"
1969/12/31/19:00:43.540000,4272,43,540000000,world,10.0000000015,-6.33626814377e-09,4.0397876728,-5.79164098635e-09,1.10090347082e-09,0.760353539094,0.649509426866,"(0.0, 0.0, 0.0, 0.0, 0.0, 0.0, 0.0, 0.0, 0.0, 0.0, 0.0, 0.0, 0.0, 0.0, 0.0, 0.0, 0.0, 0.0, 0.0, 0.0, 0.0, 0.0, 0.0, 0.0, 0.0, 0.0, 0.0, 0.0, 0.0, 0.0, 0.0, 0.0, 0.0, 0.0, 0.0, 0.0)"
1969/12/31/19:00:43.550000,4273,43,550000000,world,10.0000000017,-6.79604542446e-09,4.03978767252,-7.4065330032e-09,2.05602179432e-09,0.760353539093,0.649509426867,"(0.0, 0.0, 0.0, 0.0, 0.0, 0.0, 0.0, 0.0, 0.0, 0.0, 0.0, 0.0, 0.0, 0.0, 0.0, 0.0, 0.0, 0.0, 0.0, 0.0, 0.0, 0.0, 0.0, 0.0, 0.0, 0.0, 0.0, 0.0, 0.0, 0.0, 0.0, 0.0, 0.0, 0.0, 0.0, 0.0)"
1969/12/31/19:00:43.560000,4274,43,560000000,world,10.0000000018,-7.2431234908e-09,4.03978767217,-9.02263066178e-09,3.01615440291e-09,0.760353539091,0.649509426869,"(0.0, 0.0, 0.0, 0.0, 0.0, 0.0, 0.0, 0.0, 0.0, 0.0, 0.0, 0.0, 0.0, 0.0, 0.0, 0.0, 0.0, 0.0, 0.0, 0.0, 0.0, 0.0, 0.0, 0.0, 0.0, 0.0, 0.0, 0.0, 0.0, 0.0, 0.0, 0.0, 0.0, 0.0, 0.0, 0.0)"
1969/12/31/19:00:43.570000,4275,43,570000000,world,10.0000000019,-7.67391843772e-09,4.0397876718,-1.0560996383e-08,3.97510275331e-09,0.760353539088,0.649509426872,"(0.0, 0.0, 0.0, 0.0, 0.0, 0.0, 0.0, 0.0, 0.0, 0.0, 0.0, 0.0, 0.0, 0.0, 0.0, 0.0, 0.0, 0.0, 0.0, 0.0, 0.0, 0.0, 0.0, 0.0, 0.0, 0.0, 0.0, 0.0, 0.0, 0.0, 0.0, 0.0, 0.0, 0.0, 0.0, 0.0)"
1969/12/31/19:00:43.580000,4276,43,580000000,world,10.000000002,-8.084983873e-09,4.03978767141,-1.19857881828e-08,4.92977299162e-09,0.760353539083,0.649509426879,"(0.0, 0.0, 0.0, 0.0, 0.0, 0.0, 0.0, 0.0, 0.0, 0.0, 0.0, 0.0, 0.0, 0.0, 0.0, 0.0, 0.0, 0.0, 0.0, 0.0, 0.0, 0.0, 0.0, 0.0, 0.0, 0.0, 0.0, 0.0, 0.0, 0.0, 0.0, 0.0, 0.0, 0.0, 0.0, 0.0)"
1969/12/31/19:00:43.590000,4277,43,590000000,world,10.0000000021,-8.47294259877e-09,4.03978767101,-1.32645023825e-08,5.80222098579e-09,0.760353539076,0.649509426887,"(0.0, 0.0, 0.0, 0.0, 0.0, 0.0, 0.0, 0.0, 0.0, 0.0, 0.0, 0.0, 0.0, 0.0, 0.0, 0.0, 0.0, 0.0, 0.0, 0.0, 0.0, 0.0, 0.0, 0.0, 0.0, 0.0, 0.0, 0.0, 0.0, 0.0, 0.0, 0.0, 0.0, 0.0, 0.0, 0.0)"
1969/12/31/19:00:43.600000,4278,43,600000000,world,10.0000000022,-8.83477233e-09,4.03978767063,-1.43830376089e-08,6.55700263685e-09,0.760353539069,0.649509426895,"(0.0, 0.0, 0.0, 0.0, 0.0, 0.0, 0.0, 0.0, 0.0, 0.0, 0.0, 0.0, 0.0, 0.0, 0.0, 0.0, 0.0, 0.0, 0.0, 0.0, 0.0, 0.0, 0.0, 0.0, 0.0, 0.0, 0.0, 0.0, 0.0, 0.0, 0.0, 0.0, 0.0, 0.0, 0.0, 0.0)"
1969/12/31/19:00:43.600000,4279,43,610000000,world,10.0000000023,-9.16784814115e-09,4.03978767026,-1.5335199889e-08,7.17807220176e-09,0.760353539062,0.649509426903,"(0.0, 0.0, 0.0, 0.0, 0.0, 0.0, 0.0, 0.0, 0.0, 0.0, 0.0, 0.0, 0.0, 0.0, 0.0, 0.0, 0.0, 0.0, 0.0, 0.0, 0.0, 0.0, 0.0, 0.0, 0.0, 0.0, 0.0, 0.0, 0.0, 0.0, 0.0, 0.0, 0.0, 0.0, 0.0, 0.0)"
1969/12/31/19:00:43.620000,4280,43,620000000,world,10.0000000023,-9.46996449245e-09,4.03978766992,-1.61179171429e-08,7.65836679336e-09,0.760353539054,0.649509426912,"(0.0, 0.0, 0.0, 0.0, 0.0, 0.0, 0.0, 0.0, 0.0, 0.0, 0.0, 0.0, 0.0, 0.0, 0.0, 0.0, 0.0, 0.0, 0.0, 0.0, 0.0, 0.0, 0.0, 0.0, 0.0, 0.0, 0.0, 0.0, 0.0, 0.0, 0.0, 0.0, 0.0, 0.0, 0.0, 0.0)"
1969/12/31/19:00:43.630000,4281,43,630000000,world,10.0000000024,-9.73934732112e-09,4.03978766959,-1.67295068726e-08,7.9948628148e-09,0.760353539047,0.649509426921,"(0.0, 0.0, 0.0, 0.0, 0.0, 0.0, 0.0, 0.0, 0.0, 0.0, 0.0, 0.0, 0.0, 0.0, 0.0, 0.0, 0.0, 0.0, 0.0, 0.0, 0.0, 0.0, 0.0, 0.0, 0.0, 0.0, 0.0, 0.0, 0.0, 0.0, 0.0, 0.0, 0.0, 0.0, 0.0, 0.0)"
1969/12/31/19:00:43.640000,4282,43,640000000,world,10.0000000024,-9.97466092445e-09,4.03978766928,-1.71692663356e-08,8.18617995424e-09,0.760353539039,0.64950942693,"(0.0, 0.0, 0.0, 0.0, 0.0, 0.0, 0.0, 0.0, 0.0, 0.0, 0.0, 0.0, 0.0, 0.0, 0.0, 0.0, 0.0, 0.0, 0.0, 0.0, 0.0, 0.0, 0.0, 0.0, 0.0, 0.0, 0.0, 0.0, 0.0, 0.0, 0.0, 0.0, 0.0, 0.0, 0.0, 0.0)"
1969/12/31/19:00:43.640000,4283,43,650000000,world,10.0000000024,-1.01750115975e-08,4.03978766899,-1.743720668e-08,8.23158874485e-09,0.760353539032,0.649509426938,"(0.0, 0.0, 0.0, 0.0, 0.0, 0.0, 0.0, 0.0, 0.0, 0.0, 0.0, 0.0, 0.0, 0.0, 0.0, 0.0, 0.0, 0.0, 0.0, 0.0, 0.0, 0.0, 0.0, 0.0, 0.0, 0.0, 0.0, 0.0, 0.0, 0.0, 0.0, 0.0, 0.0, 0.0, 0.0, 0.0)"
1969/12/31/19:00:43.660000,4284,43,660000000,world,10.0000000024,-1.03399490256e-08,4.03978766873,-1.75335668977e-08,8.13075762138e-09,0.760353539024,0.649509426947,"(0.0, 0.0, 0.0, 0.0, 0.0, 0.0, 0.0, 0.0, 0.0, 0.0, 0.0, 0.0, 0.0, 0.0, 0.0, 0.0, 0.0, 0.0, 0.0, 0.0, 0.0, 0.0, 0.0, 0.0, 0.0, 0.0, 0.0, 0.0, 0.0, 0.0, 0.0, 0.0, 0.0, 0.0, 0.0, 0.0)"
1969/12/31/19:00:43.660000,4285,43,670000000,world,10.0000000024,-1.04694663123e-08,4.03978766848,-1.7458415402e-08,7.88368012184e-09,0.760353539017,0.649509426956,"(0.0, 0.0, 0.0, 0.0, 0.0, 0.0, 0.0, 0.0, 0.0, 0.0, 0.0, 0.0, 0.0, 0.0, 0.0, 0.0, 0.0, 0.0, 0.0, 0.0, 0.0, 0.0, 0.0, 0.0, 0.0, 0.0, 0.0, 0.0, 0.0, 0.0, 0.0, 0.0, 0.0, 0.0, 0.0, 0.0)"
1969/12/31/19:00:43.660000,4286,43,680000000,world,10.0000000024,-1.0563999421e-08,4.03978766825,-1.72116656115e-08,7.49048590916e-09,0.76035353901,0.649509426964,"(0.0, 0.0, 0.0, 0.0, 0.0, 0.0, 0.0, 0.0, 0.0, 0.0, 0.0, 0.0, 0.0, 0.0, 0.0, 0.0, 0.0, 0.0, 0.0, 0.0, 0.0, 0.0, 0.0, 0.0, 0.0, 0.0, 0.0, 0.0, 0.0, 0.0, 0.0, 0.0, 0.0, 0.0, 0.0, 0.0)"
1969/12/31/19:00:43.700000,4287,43,690000000,world,10.0000000023,-1.06244264161e-08,4.03978766805,-1.67933588012e-08,6.95122104322e-09,0.760353539002,0.649509426973,"(0.0, 0.0, 0.0, 0.0, 0.0, 0.0, 0.0, 0.0, 0.0, 0.0, 0.0, 0.0, 0.0, 0.0, 0.0, 0.0, 0.0, 0.0, 0.0, 0.0, 0.0, 0.0, 0.0, 0.0, 0.0, 0.0, 0.0, 0.0, 0.0, 0.0, 0.0, 0.0, 0.0, 0.0, 0.0, 0.0)"
1969/12/31/19:00:43.700000,4288,43,700000000,world,10.0000000022,-1.06520664615e-08,4.03978766786,-1.62037696608e-08,6.265827908e-09,0.760353538995,0.649509426982,"(0.0, 0.0, 0.0, 0.0, 0.0, 0.0, 0.0, 0.0, 0.0, 0.0, 0.0, 0.0, 0.0, 0.0, 0.0, 0.0, 0.0, 0.0, 0.0, 0.0, 0.0, 0.0, 0.0, 0.0, 0.0, 0.0, 0.0, 0.0, 0.0, 0.0, 0.0, 0.0, 0.0, 0.0, 0.0, 0.0)"
1969/12/31/19:00:43.710000,4289,43,710000000,world,10.0000000022,-1.06486784289e-08,4.0397876677,-1.5443159273e-08,5.4343378423e-09,0.760353538987,0.649509426991,"(0.0, 0.0, 0.0, 0.0, 0.0, 0.0, 0.0, 0.0, 0.0, 0.0, 0.0, 0.0, 0.0, 0.0, 0.0, 0.0, 0.0, 0.0, 0.0, 0.0, 0.0, 0.0, 0.0, 0.0, 0.0, 0.0, 0.0, 0.0, 0.0, 0.0, 0.0, 0.0, 0.0, 0.0, 0.0, 0.0)"
1969/12/31/19:00:43.720000,4290,43,720000000,world,10.0000000021,-1.06165183284e-08,4.03978766754,-1.45214634185e-08,4.50260768694e-09,0.760353538979,0.649509427,"(0.0, 0.0, 0.0, 0.0, 0.0, 0.0, 0.0, 0.0, 0.0, 0.0, 0.0, 0.0, 0.0, 0.0, 0.0, 0.0, 0.0, 0.0, 0.0, 0.0, 0.0, 0.0, 0.0, 0.0, 0.0, 0.0, 0.0, 0.0, 0.0, 0.0, 0.0, 0.0, 0.0, 0.0, 0.0, 0.0)"
1969/12/31/19:00:43.730000,4291,43,730000000,world,10.0000000019,-1.05582354175e-08,4.03978766737,-1.34917310373e-08,3.50422672042e-09,0.76035353897,0.649509427011,"(0.0, 0.0, 0.0, 0.0, 0.0, 0.0, 0.0, 0.0, 0.0, 0.0, 0.0, 0.0, 0.0, 0.0, 0.0, 0.0, 0.0, 0.0, 0.0, 0.0, 0.0, 0.0, 0.0, 0.0, 0.0, 0.0, 0.0, 0.0, 0.0, 0.0, 0.0, 0.0, 0.0, 0.0, 0.0, 0.0)"
1969/12/31/19:00:43.740000,4292,43,740000000,world,10.0000000018,-1.04767065137e-08,4.03978766718,-1.23897228016e-08,2.46155054775e-09,0.76035353896,0.649509427022,"(0.0, 0.0, 0.0, 0.0, 0.0, 0.0, 0.0, 0.0, 0.0, 0.0, 0.0, 0.0, 0.0, 0.0, 0.0, 0.0, 0.0, 0.0, 0.0, 0.0, 0.0, 0.0, 0.0, 0.0, 0.0, 0.0, 0.0, 0.0, 0.0, 0.0, 0.0, 0.0, 0.0, 0.0, 0.0, 0.0)"
1969/12/31/19:00:43.750000,4293,43,750000000,world,10.0000000017,-1.03749640901e-08,4.03978766695,-1.12397940374e-08,1.38931940836e-09,0.760353538951,0.649509427034,"(0.0, 0.0, 0.0, 0.0, 0.0, 0.0, 0.0, 0.0, 0.0, 0.0, 0.0, 0.0, 0.0, 0.0, 0.0, 0.0, 0.0, 0.0, 0.0, 0.0, 0.0, 0.0, 0.0, 0.0, 0.0, 0.0, 0.0, 0.0, 0.0, 0.0, 0.0, 0.0, 0.0, 0.0, 0.0, 0.0)"
1969/12/31/19:00:43.760000,4294,43,760000000,world,10.0000000015,-1.02561454664e-08,4.03978766668,-1.00583946254e-08,2.97374664881e-10,0.760353538941,0.649509427045,"(0.0, 0.0, 0.0, 0.0, 0.0, 0.0, 0.0, 0.0, 0.0, 0.0, 0.0, 0.0, 0.0, 0.0, 0.0, 0.0, 0.0, 0.0, 0.0, 0.0, 0.0, 0.0, 0.0, 0.0, 0.0, 0.0, 0.0, 0.0, 0.0, 0.0, 0.0, 0.0, 0.0, 0.0, 0.0, 0.0)"
1969/12/31/19:00:43.780000,4295,43,770000000,world,10.0000000013,-1.01234568527e-08,4.03978766636,-8.85625420685e-09,-8.07458560976e-10,0.760353538931,0.649509427057,"(0.0, 0.0, 0.0, 0.0, 0.0, 0.0, 0.0, 0.0, 0.0, 0.0, 0.0, 0.0, 0.0, 0.0, 0.0, 0.0, 0.0, 0.0, 0.0, 0.0, 0.0, 0.0, 0.0, 0.0, 0.0, 0.0, 0.0, 0.0, 0.0, 0.0, 0.0, 0.0, 0.0, 0.0, 0.0, 0.0)"
1969/12/31/19:00:43.780000,4296,43,780000000,world,10.0000000011,-9.98014810134e-09,4.039787666,-7.64015739758e-09,-1.92034773838e-09,0.76035353892,0.649509427069,"(0.0, 0.0, 0.0, 0.0, 0.0, 0.0, 0.0, 0.0, 0.0, 0.0, 0.0, 0.0, 0.0, 0.0, 0.0, 0.0, 0.0, 0.0, 0.0, 0.0, 0.0, 0.0, 0.0, 0.0, 0.0, 0.0, 0.0, 0.0, 0.0, 0.0, 0.0, 0.0, 0.0, 0.0, 0.0, 0.0)"
1969/12/31/19:00:43.790000,4297,43,790000000,world,10.0000000009,-9.82949519997e-09,4.03978766559,-6.41457545933e-09,-3.03804766598e-09,0.76035353891,0.649509427081,"(0.0, 0.0, 0.0, 0.0, 0.0, 0.0, 0.0, 0.0, 0.0, 0.0, 0.0, 0.0, 0.0, 0.0, 0.0, 0.0, 0.0, 0.0, 0.0, 0.0, 0.0, 0.0, 0.0, 0.0, 0.0, 0.0, 0.0, 0.0, 0.0, 0.0, 0.0, 0.0, 0.0, 0.0, 0.0, 0.0)"
1969/12/31/19:00:43.800000,4298,43,800000000,world,10.0000000007,-9.67478817411e-09,4.03978766513,-5.18285025583e-09,-4.15864455417e-09,0.7603535389,0.649509427093,"(0.0, 0.0, 0.0, 0.0, 0.0, 0.0, 0.0, 0.0, 0.0, 0.0, 0.0, 0.0, 0.0, 0.0, 0.0, 0.0, 0.0, 0.0, 0.0, 0.0, 0.0, 0.0, 0.0, 0.0, 0.0, 0.0, 0.0, 0.0, 0.0, 0.0, 0.0, 0.0, 0.0, 0.0, 0.0, 0.0)"
1969/12/31/19:00:43.810000,4299,43,810000000,world,10.0000000005,-9.51942130204e-09,4.03978766464,-3.96430151128e-09,-5.20501478831e-09,0.760353538888,0.649509427107,"(0.0, 0.0, 0.0, 0.0, 0.0, 0.0, 0.0, 0.0, 0.0, 0.0, 0.0, 0.0, 0.0, 0.0, 0.0, 0.0, 0.0, 0.0, 0.0, 0.0, 0.0, 0.0, 0.0, 0.0, 0.0, 0.0, 0.0, 0.0, 0.0, 0.0, 0.0, 0.0, 0.0, 0.0, 0.0, 0.0)"
1969/12/31/19:00:43.820000,4300,43,820000000,world,10.0000000002,-9.36661708608e-09,4.03978766412,-2.76818645386e-09,-6.14223537627e-09,0.760353538874,0.649509427123,"(0.0, 0.0, 0.0, 0.0, 0.0, 0.0, 0.0, 0.0, 0.0, 0.0, 0.0, 0.0, 0.0, 0.0, 0.0, 0.0, 0.0, 0.0, 0.0, 0.0, 0.0, 0.0, 0.0, 0.0, 0.0, 0.0, 0.0, 0.0, 0.0, 0.0, 0.0, 0.0, 0.0, 0.0, 0.0, 0.0)"
1969/12/31/19:00:43.830000,4301,43,830000000,world,9.99999999998,-9.2193876748e-09,4.03978766359,-1.59863379885e-09,-6.95418366502e-09,0.760353538857,0.649509427143,"(0.0, 0.0, 0.0, 0.0, 0.0, 0.0, 0.0, 0.0, 0.0, 0.0, 0.0, 0.0, 0.0, 0.0, 0.0, 0.0, 0.0, 0.0, 0.0, 0.0, 0.0, 0.0, 0.0, 0.0, 0.0, 0.0, 0.0, 0.0, 0.0, 0.0, 0.0, 0.0, 0.0, 0.0, 0.0, 0.0)"
1969/12/31/19:00:43.840000,4302,43,840000000,world,9.99999999971,-9.08051446108e-09,4.03978766304,-4.57297628102e-10,-7.63332867988e-09,0.760353538837,0.649509427166,"(0.0, 0.0, 0.0, 0.0, 0.0, 0.0, 0.0, 0.0, 0.0, 0.0, 0.0, 0.0, 0.0, 0.0, 0.0, 0.0, 0.0, 0.0, 0.0, 0.0, 0.0, 0.0, 0.0, 0.0, 0.0, 0.0, 0.0, 0.0, 0.0, 0.0, 0.0, 0.0, 0.0, 0.0, 0.0, 0.0)"
1969/12/31/19:00:43.870000,4303,43,850000000,world,9.99999999944,-8.95253727757e-09,4.03978766247,6.54996163098e-10,-8.17632769374e-09,0.760353538814,0.649509427193,"(0.0, 0.0, 0.0, 0.0, 0.0, 0.0, 0.0, 0.0, 0.0, 0.0, 0.0, 0.0, 0.0, 0.0, 0.0, 0.0, 0.0, 0.0, 0.0, 0.0, 0.0, 0.0, 0.0, 0.0, 0.0, 0.0, 0.0, 0.0, 0.0, 0.0, 0.0, 0.0, 0.0, 0.0, 0.0, 0.0)"
1969/12/31/19:00:43.870000,4304,43,860000000,world,9.99999999915,-8.83774868286e-09,4.03978766189,1.73746545926e-09,-8.58189984346e-09,0.760353538789,0.649509427223,"(0.0, 0.0, 0.0, 0.0, 0.0, 0.0, 0.0, 0.0, 0.0, 0.0, 0.0, 0.0, 0.0, 0.0, 0.0, 0.0, 0.0, 0.0, 0.0, 0.0, 0.0, 0.0, 0.0, 0.0, 0.0, 0.0, 0.0, 0.0, 0.0, 0.0, 0.0, 0.0, 0.0, 0.0, 0.0, 0.0)"
1969/12/31/19:00:43.870000,4305,43,870000000,world,9.99999999886,-8.73826829401e-09,4.03978766131,2.71154503594e-09,-8.84502692342e-09,0.760353538762,0.649509427254,"(0.0, 0.0, 0.0, 0.0, 0.0, 0.0, 0.0, 0.0, 0.0, 0.0, 0.0, 0.0, 0.0, 0.0, 0.0, 0.0, 0.0, 0.0, 0.0, 0.0, 0.0, 0.0, 0.0, 0.0, 0.0, 0.0, 0.0, 0.0, 0.0, 0.0, 0.0, 0.0, 0.0, 0.0, 0.0, 0.0)"
1969/12/31/19:00:43.870000,4306,43,880000000,world,9.99999999856,-8.65582826982e-09,4.03978766074,3.5419826936e-09,-8.96338627164e-09,0.760353538734,0.649509427287,"(0.0, 0.0, 0.0, 0.0, 0.0, 0.0, 0.0, 0.0, 0.0, 0.0, 0.0, 0.0, 0.0, 0.0, 0.0, 0.0, 0.0, 0.0, 0.0, 0.0, 0.0, 0.0, 0.0, 0.0, 0.0, 0.0, 0.0, 0.0, 0.0, 0.0, 0.0, 0.0, 0.0, 0.0, 0.0, 0.0)"
1969/12/31/19:00:43.900000,4307,43,890000000,world,9.99999999825,-8.59174525502e-09,4.03978766019,4.21330002174e-09,-8.93585406743e-09,0.760353538707,0.649509427319,"(0.0, 0.0, 0.0, 0.0, 0.0, 0.0, 0.0, 0.0, 0.0, 0.0, 0.0, 0.0, 0.0, 0.0, 0.0, 0.0, 0.0, 0.0, 0.0, 0.0, 0.0, 0.0, 0.0, 0.0, 0.0, 0.0, 0.0, 0.0, 0.0, 0.0, 0.0, 0.0, 0.0, 0.0, 0.0, 0.0)"
1969/12/31/19:00:43.900000,4308,43,900000000,world,9.99999999794,-8.5469067346e-09,4.03978765966,4.7187756204e-09,-8.76200193775e-09,0.760353538679,0.649509427352,"(0.0, 0.0, 0.0, 0.0, 0.0, 0.0, 0.0, 0.0, 0.0, 0.0, 0.0, 0.0, 0.0, 0.0, 0.0, 0.0, 0.0, 0.0, 0.0, 0.0, 0.0, 0.0, 0.0, 0.0, 0.0, 0.0, 0.0, 0.0, 0.0, 0.0, 0.0, 0.0, 0.0, 0.0, 0.0, 0.0)"
1969/12/31/19:00:43.910000,4309,43,910000000,world,9.99999999763,-8.52176464045e-09,4.03978765915,5.05531416638e-09,-8.44181851903e-09,0.760353538651,0.649509427384,"(0.0, 0.0, 0.0, 0.0, 0.0, 0.0, 0.0, 0.0, 0.0, 0.0, 0.0, 0.0, 0.0, 0.0, 0.0, 0.0, 0.0, 0.0, 0.0, 0.0, 0.0, 0.0, 0.0, 0.0, 0.0, 0.0, 0.0, 0.0, 0.0, 0.0, 0.0, 0.0, 0.0, 0.0, 0.0, 0.0)"
1969/12/31/19:00:43.920000,4310,43,920000000,world,9.99999999731,-8.51633230004e-09,4.03978765865,5.22136902678e-09,-7.97538847906e-09,0.760353538623,0.649509427417,"(0.0, 0.0, 0.0, 0.0, 0.0, 0.0, 0.0, 0.0, 0.0, 0.0, 0.0, 0.0, 0.0, 0.0, 0.0, 0.0, 0.0, 0.0, 0.0, 0.0, 0.0, 0.0, 0.0, 0.0, 0.0, 0.0, 0.0, 0.0, 0.0, 0.0, 0.0, 0.0, 0.0, 0.0, 0.0, 0.0)"
1969/12/31/19:00:43.930000,4311,43,930000000,world,9.99999999699,-8.53018282737e-09,4.03978765818,5.21630275484e-09,-7.36267848377e-09,0.760353538595,0.649509427449,"(0.0, 0.0, 0.0, 0.0, 0.0, 0.0, 0.0, 0.0, 0.0, 0.0, 0.0, 0.0, 0.0, 0.0, 0.0, 0.0, 0.0, 0.0, 0.0, 0.0, 0.0, 0.0, 0.0, 0.0, 0.0, 0.0, 0.0, 0.0, 0.0, 0.0, 0.0, 0.0, 0.0, 0.0, 0.0, 0.0)"
1969/12/31/19:00:43.940000,4312,43,940000000,world,9.99999999667,-8.56244846034e-09,4.03978765773,5.04007965528e-09,-6.60360685778e-09,0.760353538568,0.649509427482,"(0.0, 0.0, 0.0, 0.0, 0.0, 0.0, 0.0, 0.0, 0.0, 0.0, 0.0, 0.0, 0.0, 0.0, 0.0, 0.0, 0.0, 0.0, 0.0, 0.0, 0.0, 0.0, 0.0, 0.0, 0.0, 0.0, 0.0, 0.0, 0.0, 0.0, 0.0, 0.0, 0.0, 0.0, 0.0, 0.0)"
1969/12/31/19:00:43.950000,4313,43,950000000,world,9.99999999635,-8.61176181251e-09,4.03978765729,4.70281052109e-09,-5.74386808208e-09,0.760353538541,0.649509427513,"(0.0, 0.0, 0.0, 0.0, 0.0, 0.0, 0.0, 0.0, 0.0, 0.0, 0.0, 0.0, 0.0, 0.0, 0.0, 0.0, 0.0, 0.0, 0.0, 0.0, 0.0, 0.0, 0.0, 0.0, 0.0, 0.0, 0.0, 0.0, 0.0, 0.0, 0.0, 0.0, 0.0, 0.0, 0.0, 0.0)"
1969/12/31/19:00:43.950000,4314,43,960000000,world,9.99999999603,-8.67640578543e-09,4.03978765685,4.21116140363e-09,-4.81434249552e-09,0.760353538516,0.649509427542,"(0.0, 0.0, 0.0, 0.0, 0.0, 0.0, 0.0, 0.0, 0.0, 0.0, 0.0, 0.0, 0.0, 0.0, 0.0, 0.0, 0.0, 0.0, 0.0, 0.0, 0.0, 0.0, 0.0, 0.0, 0.0, 0.0, 0.0, 0.0, 0.0, 0.0, 0.0, 0.0, 0.0, 0.0, 0.0, 0.0)"
1969/12/31/19:00:43.950000,4315,43,970000000,world,9.99999999571,-8.7543627274e-09,4.0397876564,3.56951866765e-09,-3.8357504299e-09,0.760353538493,0.649509427569,"(0.0, 0.0, 0.0, 0.0, 0.0, 0.0, 0.0, 0.0, 0.0, 0.0, 0.0, 0.0, 0.0, 0.0, 0.0, 0.0, 0.0, 0.0, 0.0, 0.0, 0.0, 0.0, 0.0, 0.0, 0.0, 0.0, 0.0, 0.0, 0.0, 0.0, 0.0, 0.0, 0.0, 0.0, 0.0, 0.0)"
1969/12/31/19:00:43.980000,4316,43,980000000,world,9.99999999539,-8.84330249888e-09,4.03978765593,2.82760287386e-09,-2.8244798642e-09,0.760353538471,0.649509427594,"(0.0, 0.0, 0.0, 0.0, 0.0, 0.0, 0.0, 0.0, 0.0, 0.0, 0.0, 0.0, 0.0, 0.0, 0.0, 0.0, 0.0, 0.0, 0.0, 0.0, 0.0, 0.0, 0.0, 0.0, 0.0, 0.0, 0.0, 0.0, 0.0, 0.0, 0.0, 0.0, 0.0, 0.0, 0.0, 0.0)"
1969/12/31/19:00:44.000000,4317,44,0,world,9.99999999476,-9.0440077975e-09,4.03978765489,1.16643475362e-09,-7.4349185139e-10,0.760353538431,0.649509427642,"(0.0, 0.0, 0.0, 0.0, 0.0, 0.0, 0.0, 0.0, 0.0, 0.0, 0.0, 0.0, 0.0, 0.0, 0.0, 0.0, 0.0, 0.0, 0.0, 0.0, 0.0, 0.0, 0.0, 0.0, 0.0, 0.0, 0.0, 0.0, 0.0, 0.0, 0.0, 0.0, 0.0, 0.0, 0.0, 0.0)"
1969/12/31/19:00:44.010000,4318,44,10000000,world,9.99999999445,-9.15045925024e-09,4.03978765431,2.84647567613e-10,3.13810035315e-10,0.760353538411,0.649509427665,"(0.0, 0.0, 0.0, 0.0, 0.0, 0.0, 0.0, 0.0, 0.0, 0.0, 0.0, 0.0, 0.0, 0.0, 0.0, 0.0, 0.0, 0.0, 0.0, 0.0, 0.0, 0.0, 0.0, 0.0, 0.0, 0.0, 0.0, 0.0, 0.0, 0.0, 0.0, 0.0, 0.0, 0.0, 0.0, 0.0)"
1969/12/31/19:00:44.020000,4319,44,20000000,world,9.99999999413,-9.25733157224e-09,4.03978765368,-6.16611043157e-10,1.37695291963e-09,0.760353538392,0.649509427687,"(0.0, 0.0, 0.0, 0.0, 0.0, 0.0, 0.0, 0.0, 0.0, 0.0, 0.0, 0.0, 0.0, 0.0, 0.0, 0.0, 0.0, 0.0, 0.0, 0.0, 0.0, 0.0, 0.0, 0.0, 0.0, 0.0, 0.0, 0.0, 0.0, 0.0, 0.0, 0.0, 0.0, 0.0, 0.0, 0.0)"
1969/12/31/19:00:44.030000,4320,44,30000000,world,9.99999999382,-9.36184718558e-09,4.039787653,-1.53079147951e-09,2.44357896403e-09,0.760353538373,0.649509427709,"(0.0, 0.0, 0.0, 0.0, 0.0, 0.0, 0.0, 0.0, 0.0, 0.0, 0.0, 0.0, 0.0, 0.0, 0.0, 0.0, 0.0, 0.0, 0.0, 0.0, 0.0, 0.0, 0.0, 0.0, 0.0, 0.0, 0.0, 0.0, 0.0, 0.0, 0.0, 0.0, 0.0, 0.0, 0.0, 0.0)"
1969/12/31/19:00:44.040000,4321,44,40000000,world,9.99999999351,-9.46121060327e-09,4.03978765228,-2.45317674869e-09,3.5124001978e-09,0.760353538354,0.649509427731,"(0.0, 0.0, 0.0, 0.0, 0.0, 0.0, 0.0, 0.0, 0.0, 0.0, 0.0, 0.0, 0.0, 0.0, 0.0, 0.0, 0.0, 0.0, 0.0, 0.0, 0.0, 0.0, 0.0, 0.0, 0.0, 0.0, 0.0, 0.0, 0.0, 0.0, 0.0, 0.0, 0.0, 0.0, 0.0, 0.0)"
1969/12/31/19:00:44.050000,4322,44,50000000,world,9.9999999932,-9.55261768895e-09,4.0397876515,-3.38034144644e-09,4.58274551375e-09,0.760353538336,0.649509427753,"(0.0, 0.0, 0.0, 0.0, 0.0, 0.0, 0.0, 0.0, 0.0, 0.0, 0.0, 0.0, 0.0, 0.0, 0.0, 0.0, 0.0, 0.0, 0.0, 0.0, 0.0, 0.0, 0.0, 0.0, 0.0, 0.0, 0.0, 0.0, 0.0, 0.0, 0.0, 0.0, 0.0, 0.0, 0.0, 0.0)"
