time,.header.seq,.header.stamp.secs,.header.stamp.nsecs,.header.frame_id,.orientation.x,.orientation.y,.orientation.z,.orientation.w,.orientation_covariance,.angular_velocity.x,.angular_velocity.y,.angular_velocity.z,.angular_velocity_covariance,.linear_acceleration.x,.linear_acceleration.y,.linear_acceleration.z,.linear_acceleration_covariance
1969/12/31/19:00:42.330000,4156,42,330000000,firefly/imugt_link,-1.33866265268e-08,-3.86841152349e-09,0.760353537382,0.64950942887,"(-1.0, -1.0, -1.0, -1.0, -1.0, -1.0, -1.0, -1.0, -1.0)",-0.000498812624383,-6.39045864646e-05,-0.000282315585777,"(0.0, 0.0, 0.0, 0.0, 0.0, 0.0, 0.0, 0.0, 0.0)",-2.7721064277e-08,5.99657159366e-08,9.80000018957,"(0.0, 0.0, 0.0, 0.0, 0.0, 0.0, 0.0, 0.0, 0.0)"
1969/12/31/19:00:42.340000,4157,42,340000000,firefly/imugt_link,-1.2739045117e-08,-1.20465828564e-09,0.760353537393,0.649509428857,"(-1.0, -1.0, -1.0, -1.0, -1.0, -1.0, -1.0, -1.0, -1.0)",-0.000500490654162,-5.95834370262e-05,-0.000296735433535,"(0.0, 0.0, 0.0, 0.0, 0.0, 0.0, 0.0, 0.0, 0.0)",-2.91791002063e-08,6.22107026073e-08,9.79999995549,"(0.0, 0.0, 0.0, 0.0, 0.0, 0.0, 0.0, 0.0, 0.0)"
1969/12/31/19:00:42.350000,4158,42,350000000,firefly/imugt_link,-1.20551349134e-08,1.57870031439e-09,0.760353537403,0.649509428845,"(-1.0, -1.0, -1.0, -1.0, -1.0, -1.0, -1.0, -1.0, -1.0)",-0.000506656413789,-5.65159545099e-05,-0.000291684659358,"(0.0, 0.0, 0.0, 0.0, 0.0, 0.0, 0.0, 0.0, 0.0)",-3.02325768516e-08,6.34548616646e-08,9.79999979684,"(0.0, 0.0, 0.0, 0.0, 0.0, 0.0, 0.0, 0.0, 0.0)"
1969/12/31/19:00:42.360000,4159,42,360000000,firefly/imugt_link,-1.1347514861e-08,4.44030835702e-09,0.760353537413,0.649509428833,"(-1.0, -1.0, -1.0, -1.0, -1.0, -1.0, -1.0, -1.0, -1.0)",-0.000504883051468,-5.75751016025e-05,-0.000286363717776,"(0.0, 0.0, 0.0, 0.0, 0.0, 0.0, 0.0, 0.0, 0.0)",-3.09834476609e-08,6.39659941403e-08,9.79999968971,"(0.0, 0.0, 0.0, 0.0, 0.0, 0.0, 0.0, 0.0, 0.0)"
1969/12/31/19:00:42.370000,4160,42,370000000,firefly/imugt_link,-1.06245800405e-08,7.35248804237e-09,0.760353537424,0.649509428821,"(-1.0, -1.0, -1.0, -1.0, -1.0, -1.0, -1.0, -1.0, -1.0)",-0.000505807401059,-5.93289359615e-05,-0.00028820480406,"(0.0, 0.0, 0.0, 0.0, 0.0, 0.0, 0.0, 0.0, 0.0)",-3.15285456308e-08,6.39790265391e-08,9.79999961754,"(0.0, 0.0, 0.0, 0.0, 0.0, 0.0, 0.0, 0.0, 0.0)"
1969/12/31/19:00:42.390000,4161,42,380000000,firefly/imugt_link,-9.93630348201e-09,1.01498269391e-08,0.760353537434,0.649509428809,"(-1.0, -1.0, -1.0, -1.0, -1.0, -1.0, -1.0, -1.0, -1.0)",-0.000504163728264,-6.18097673496e-05,-0.000287778031731,"(0.0, 0.0, 0.0, 0.0, 0.0, 0.0, 0.0, 0.0, 0.0)",-2.98440264605e-08,5.88974041221e-08,9.79999997317,"(0.0, 0.0, 0.0, 0.0, 0.0, 0.0, 0.0, 0.0, 0.0)"
1969/12/31/19:00:42.390000,4162,42,390000000,firefly/imugt_link,-9.30617457719e-09,1.2754897759e-08,0.760353537445,0.649509428797,"(-1.0, -1.0, -1.0, -1.0, -1.0, -1.0, -1.0, -1.0, -1.0)",-0.000507060505069,-6.12187567998e-05,-0.000289008029601,"(0.0, 0.0, 0.0, 0.0, 0.0, 0.0, 0.0, 0.0, 0.0)",-2.78817228673e-08,5.31703060947e-08,9.80000012216,"(0.0, 0.0, 0.0, 0.0, 0.0, 0.0, 0.0, 0.0, 0.0)"
1969/12/31/19:00:42.410000,4163,42,400000000,firefly/imugt_link,-8.74544681567e-09,1.51303307271e-08,0.760353537455,0.649509428784,"(-1.0, -1.0, -1.0, -1.0, -1.0, -1.0, -1.0, -1.0, -1.0)",-0.000505880043724,-5.74088116253e-05,-0.000284114770536,"(0.0, 0.0, 0.0, 0.0, 0.0, 0.0, 0.0, 0.0, 0.0)",-2.57330009184e-08,4.70262068131e-08,9.80000018187,"(0.0, 0.0, 0.0, 0.0, 0.0, 0.0, 0.0, 0.0, 0.0)"
1969/12/31/19:00:42.420000,4164,42,410000000,firefly/imugt_link,-8.25972582904e-09,1.72569317772e-08,0.760353537465,0.649509428772,"(-1.0, -1.0, -1.0, -1.0, -1.0, -1.0, -1.0, -1.0, -1.0)",-0.000504982761963,-5.34196999339e-05,-0.000282456989016,"(0.0, 0.0, 0.0, 0.0, 0.0, 0.0, 0.0, 0.0, 0.0)",-2.34653383651e-08,4.0631649914e-08,9.80000020385,"(0.0, 0.0, 0.0, 0.0, 0.0, 0.0, 0.0, 0.0, 0.0)"
1969/12/31/19:00:42.420000,4165,42,420000000,firefly/imugt_link,-7.84197133408e-09,1.90788052372e-08,0.760353537477,0.649509428759,"(-1.0, -1.0, -1.0, -1.0, -1.0, -1.0, -1.0, -1.0, -1.0)",-0.000511997295791,-5.00936668456e-05,-0.000285244077703,"(0.0, 0.0, 0.0, 0.0, 0.0, 0.0, 0.0, 0.0, 0.0)",-1.98768333744e-08,3.31660936242e-08,9.8000000895,"(0.0, 0.0, 0.0, 0.0, 0.0, 0.0, 0.0, 0.0, 0.0)"
1969/12/31/19:00:42.430000,4166,42,430000000,firefly/imugt_link,-7.48700164184e-09,2.05602727628e-08,0.760353537489,0.649509428744,"(-1.0, -1.0, -1.0, -1.0, -1.0, -1.0, -1.0, -1.0, -1.0)",-0.000508056969807,-4.60196908538e-05,-0.000283194341463,"(0.0, 0.0, 0.0, 0.0, 0.0, 0.0, 0.0, 0.0, 0.0)",-1.58783662766e-08,2.53952410269e-08,9.8000000092,"(0.0, 0.0, 0.0, 0.0, 0.0, 0.0, 0.0, 0.0, 0.0)"
1969/12/31/19:00:42.440000,4167,42,440000000,firefly/imugt_link,-7.19101148068e-09,2.16788218201e-08,0.760353537504,0.649509428726,"(-1.0, -1.0, -1.0, -1.0, -1.0, -1.0, -1.0, -1.0, -1.0)",-0.000505107333944,-4.05568926406e-05,-0.000285001051944,"(0.0, 0.0, 0.0, 0.0, 0.0, 0.0, 0.0, 0.0, 0.0)",-1.16097194099e-08,1.74774545486e-08,9.79999995373,"(0.0, 0.0, 0.0, 0.0, 0.0, 0.0, 0.0, 0.0, 0.0)"
1969/12/31/19:00:42.460000,4168,42,450000000,firefly/imugt_link,-6.9512763232e-09,2.24199611603e-08,0.760353537522,0.649509428706,"(-1.0, -1.0, -1.0, -1.0, -1.0, -1.0, -1.0, -1.0, -1.0)",-0.000509744648254,-4.24114952077e-05,-0.000286236126065,"(0.0, 0.0, 0.0, 0.0, 0.0, 0.0, 0.0, 0.0, 0.0)",-7.165552243e-09,9.50846668939e-09,9.79999991582,"(0.0, 0.0, 0.0, 0.0, 0.0, 0.0, 0.0, 0.0, 0.0)"
1969/12/31/19:00:42.470000,4169,42,460000000,firefly/imugt_link,-6.76594691736e-09,2.27738248208e-08,0.760353537542,0.649509428683,"(-1.0, -1.0, -1.0, -1.0, -1.0, -1.0, -1.0, -1.0, -1.0)",-0.000507329993991,-4.0953004795e-05,-0.00028058292869,"(0.0, 0.0, 0.0, 0.0, 0.0, 0.0, 0.0, 0.0, 0.0)",-2.60885609794e-09,1.54152445918e-09,9.79999989007,"(0.0, 0.0, 0.0, 0.0, 0.0, 0.0, 0.0, 0.0, 0.0)"
1969/12/31/19:00:42.470000,4170,42,470000000,firefly/imugt_link,-6.63378821431e-09,2.27335785051e-08,0.760353537564,0.649509428656,"(-1.0, -1.0, -1.0, -1.0, -1.0, -1.0, -1.0, -1.0, -1.0)",-0.000516156594881,-3.88698900406e-05,-0.000277153533558,"(0.0, 0.0, 0.0, 0.0, 0.0, 0.0, 0.0, 0.0, 0.0)",2.01115068264e-09,-6.38363911216e-09,9.79999987267,"(0.0, 0.0, 0.0, 0.0, 0.0, 0.0, 0.0, 0.0, 0.0)"
1969/12/31/19:00:42.480000,4171,42,480000000,firefly/imugt_link,-6.55389816036e-09,2.22948872834e-08,0.76035353759,0.649509428627,"(-1.0, -1.0, -1.0, -1.0, -1.0, -1.0, -1.0, -1.0, -1.0)",-0.000511508944826,-3.58918534497e-05,-0.000279877198231,"(0.0, 0.0, 0.0, 0.0, 0.0, 0.0, 0.0, 0.0, 0.0)",6.65248370385e-09,-1.42300253027e-08,9.79999986093,"(0.0, 0.0, 0.0, 0.0, 0.0, 0.0, 0.0, 0.0, 0.0)"
1969/12/31/19:00:42.490000,4172,42,490000000,firefly/imugt_link,-6.52555812746e-09,2.14553560926e-08,0.760353537618,0.649509428594,"(-1.0, -1.0, -1.0, -1.0, -1.0, -1.0, -1.0, -1.0, -1.0)",-0.000507996529791,-3.83618470553e-05,-0.000278842580151,"(0.0, 0.0, 0.0, 0.0, 0.0, 0.0, 0.0, 0.0, 0.0)",1.12863435139e-08,-2.19758233936e-08,9.79999985304,"(0.0, 0.0, 0.0, 0.0, 0.0, 0.0, 0.0, 0.0, 0.0)"
1969/12/31/19:00:42.500000,4173,42,500000000,firefly/imugt_link,-6.54825253565e-09,2.02135747616e-08,0.760353537649,0.649509428557,"(-1.0, -1.0, -1.0, -1.0, -1.0, -1.0, -1.0, -1.0, -1.0)",-0.000503935435996,-4.09156764507e-05,-0.000277376124827,"(0.0, 0.0, 0.0, 0.0, 0.0, 0.0, 0.0, 0.0, 0.0)",1.59022450446e-08,-2.96253209193e-08,9.79999984773,"(0.0, 0.0, 0.0, 0.0, 0.0, 0.0, 0.0, 0.0, 0.0)"
1969/12/31/19:00:42.510000,4174,42,510000000,firefly/imugt_link,-6.63819016683e-09,1.86435849233e-08,0.760353537681,0.649509428519,"(-1.0, -1.0, -1.0, -1.0, -1.0, -1.0, -1.0, -1.0, -1.0)",-0.000507027378394,-4.41583768701e-05,-0.000277462276759,"(0.0, 0.0, 0.0, 0.0, 0.0, 0.0, 0.0, 0.0, 0.0)",1.84158942657e-08,-3.5618913623e-08,9.80000004394,"(0.0, 0.0, 0.0, 0.0, 0.0, 0.0, 0.0, 0.0, 0.0)"
1969/12/31/19:00:42.520000,4175,42,520000000,firefly/imugt_link,-6.802658879e-09,1.67785550912e-08,0.760353537714,0.649509428481,"(-1.0, -1.0, -1.0, -1.0, -1.0, -1.0, -1.0, -1.0, -1.0)",-0.000511002485781,-4.86493837013e-05,-0.000284539016541,"(0.0, 0.0, 0.0, 0.0, 0.0, 0.0, 0.0, 0.0, 0.0)",2.06927241132e-08,-4.13796830605e-08,9.80000013207,"(0.0, 0.0, 0.0, 0.0, 0.0, 0.0, 0.0, 0.0, 0.0)"
1969/12/31/19:00:42.530000,4176,42,530000000,firefly/imugt_link,-7.04480277368e-09,1.46337837468e-08,0.760353537747,0.649509428442,"(-1.0, -1.0, -1.0, -1.0, -1.0, -1.0, -1.0, -1.0, -1.0)",-0.000509504154925,-5.18785648202e-05,-0.000286401894453,"(0.0, 0.0, 0.0, 0.0, 0.0, 0.0, 0.0, 0.0, 0.0)",2.27955235814e-08,-4.69575250725e-08,9.80000017165,"(0.0, 0.0, 0.0, 0.0, 0.0, 0.0, 0.0, 0.0, 0.0)"
1969/12/31/19:00:42.540000,4177,42,540000000,firefly/imugt_link,-7.36583963932e-09,1.22168499661e-08,0.76035353778,0.649509428404,"(-1.0, -1.0, -1.0, -1.0, -1.0, -1.0, -1.0, -1.0, -1.0)",-0.000505572091253,-5.25390526741e-05,-0.000282476167178,"(0.0, 0.0, 0.0, 0.0, 0.0, 0.0, 0.0, 0.0, 0.0)",2.47761901891e-08,-5.23975412239e-08,9.80000018942,"(0.0, 0.0, 0.0, 0.0, 0.0, 0.0, 0.0, 0.0, 0.0)"
1969/12/31/19:00:42.550000,4178,42,550000000,firefly/imugt_link,-7.73957366344e-09,9.61993338794e-09,0.760353537813,0.649509428365,"(-1.0, -1.0, -1.0, -1.0, -1.0, -1.0, -1.0, -1.0, -1.0)",-0.00050834634022,-5.45112730775e-05,-0.000282055741111,"(0.0, 0.0, 0.0, 0.0, 0.0, 0.0, 0.0, 0.0, 0.0)",2.54225562004e-08,-5.48844179797e-08,9.79999995544,"(0.0, 0.0, 0.0, 0.0, 0.0, 0.0, 0.0, 0.0, 0.0)"
1969/12/31/19:00:42.560000,4179,42,560000000,firefly/imugt_link,-8.14840801922e-09,6.90353718133e-09,0.760353537847,0.649509428326,"(-1.0, -1.0, -1.0, -1.0, -1.0, -1.0, -1.0, -1.0, -1.0)",-0.00050886750735,-5.54182615069e-05,-0.000280416587168,"(0.0, 0.0, 0.0, 0.0, 0.0, 0.0, 0.0, 0.0, 0.0)",2.56389666217e-08,-5.64247201501e-08,9.79999979682,"(0.0, 0.0, 0.0, 0.0, 0.0, 0.0, 0.0, 0.0, 0.0)"
1969/12/31/19:00:42.570000,4180,42,570000000,firefly/imugt_link,-8.58061158643e-09,4.107337045e-09,0.76035353788,0.649509428287,"(-1.0, -1.0, -1.0, -1.0, -1.0, -1.0, -1.0, -1.0, -1.0)",-0.000509396690888,-5.82872474715e-05,-0.000281128691873,"(0.0, 0.0, 0.0, 0.0, 0.0, 0.0, 0.0, 0.0, 0.0)",2.55590145503e-08,-5.72908850818e-08,9.79999968971,"(0.0, 0.0, 0.0, 0.0, 0.0, 0.0, 0.0, 0.0, 0.0)"
1969/12/31/19:00:42.580000,4181,42,580000000,firefly/imugt_link,-9.02827588958e-09,1.25798146301e-09,0.760353537913,0.649509428248,"(-1.0, -1.0, -1.0, -1.0, -1.0, -1.0, -1.0, -1.0, -1.0)",-0.000508293544722,-6.33214729234e-05,-0.000275865817177,"(0.0, 0.0, 0.0, 0.0, 0.0, 0.0, 0.0, 0.0, 0.0)",2.5275279863e-08,-5.76769741572e-08,9.79999961755,"(0.0, 0.0, 0.0, 0.0, 0.0, 0.0, 0.0, 0.0, 0.0)"
1969/12/31/19:00:42.590000,4182,42,590000000,firefly/imugt_link,-9.34702812537e-09,-1.55887359072e-09,0.760353537946,0.64950942821,"(-1.0, -1.0, -1.0, -1.0, -1.0, -1.0, -1.0, -1.0, -1.0)",-0.000506639395004,-6.46500910359e-05,-0.00027448041296,"(0.0, 0.0, 0.0, 0.0, 0.0, 0.0, 0.0, 0.0, 0.0)",2.69637090183e-08,-5.29300305235e-08,9.79999997317,"(0.0, 0.0, 0.0, 0.0, 0.0, 0.0, 0.0, 0.0, 0.0)"
1969/12/31/19:00:42.600000,4183,42,600000000,firefly/imugt_link,-9.47063709864e-09,-4.30012409935e-09,0.760353537979,0.649509428171,"(-1.0, -1.0, -1.0, -1.0, -1.0, -1.0, -1.0, -1.0, -1.0)",-0.000508075713946,-6.3789932898e-05,-0.000276297337655,"(0.0, 0.0, 0.0, 0.0, 0.0, 0.0, 0.0, 0.0, 0.0)",2.87934182335e-08,-4.74818558196e-08,9.80000012216,"(0.0, 0.0, 0.0, 0.0, 0.0, 0.0, 0.0, 0.0, 0.0)"
1969/12/31/19:00:42.610000,4184,42,610000000,firefly/imugt_link,-9.36848607328e-09,-6.94397008847e-09,0.760353538012,0.649509428133,"(-1.0, -1.0, -1.0, -1.0, -1.0, -1.0, -1.0, -1.0, -1.0)",-0.000506596104722,-6.48136357186e-05,-0.000272216029715,"(0.0, 0.0, 0.0, 0.0, 0.0, 0.0, 0.0, 0.0, 0.0)",3.07611160807e-08,-4.15996744907e-08,9.80000018187,"(0.0, 0.0, 0.0, 0.0, 0.0, 0.0, 0.0, 0.0, 0.0)"
1969/12/31/19:00:42.620000,4185,42,620000000,firefly/imugt_link,-9.02655677261e-09,-9.47969891013e-09,0.760353538045,0.649509428094,"(-1.0, -1.0, -1.0, -1.0, -1.0, -1.0, -1.0, -1.0, -1.0)",-0.000509331386065,-6.77789336005e-05,-0.000270229609172,"(0.0, 0.0, 0.0, 0.0, 0.0, 0.0, 0.0, 0.0, 0.0)",3.28571853558e-08,-3.54939474588e-08,9.80000020385,"(0.0, 0.0, 0.0, 0.0, 0.0, 0.0, 0.0, 0.0, 0.0)"
1969/12/31/19:00:42.620000,4186,42,630000000,firefly/imugt_link,-8.45532430436e-09,-1.18258195414e-08,0.760353538076,0.649509428057,"(-1.0, -1.0, -1.0, -1.0, -1.0, -1.0, -1.0, -1.0, -1.0)",-0.000515986342952,-6.78349683206e-05,-0.000273621864477,"(0.0, 0.0, 0.0, 0.0, 0.0, 0.0, 0.0, 0.0, 0.0)",3.29505777447e-08,-2.77037836404e-08,9.80000041255,"(0.0, 0.0, 0.0, 0.0, 0.0, 0.0, 0.0, 0.0, 0.0)"
1969/12/31/19:00:42.630000,4187,42,640000000,firefly/imugt_link,-7.65944540246e-09,-1.39447060589e-08,0.760353538105,0.649509428024,"(-1.0, -1.0, -1.0, -1.0, -1.0, -1.0, -1.0, -1.0, -1.0)",-0.000510057431232,-7.80497057884e-05,-0.000273578751638,"(0.0, 0.0, 0.0, 0.0, 0.0, 0.0, 0.0, 0.0, 0.0)",3.29146633789e-08,-1.97339478291e-08,9.80000050415,"(0.0, 0.0, 0.0, 0.0, 0.0, 0.0, 0.0, 0.0, 0.0)"
1969/12/31/19:00:42.650000,4188,42,650000000,firefly/imugt_link,-6.64063585945e-09,-1.58182986252e-08,0.760353538131,0.649509427993,"(-1.0, -1.0, -1.0, -1.0, -1.0, -1.0, -1.0, -1.0, -1.0)",-0.000513633575079,-8.12688355279e-05,-0.000270912974511,"(0.0, 0.0, 0.0, 0.0, 0.0, 0.0, 0.0, 0.0, 0.0)",3.28082665784e-08,-1.1676987113e-08,9.80000054385,"(0.0, 0.0, 0.0, 0.0, 0.0, 0.0, 0.0, 0.0, 0.0)"
1969/12/31/19:00:42.650000,4189,42,660000000,firefly/imugt_link,-5.39928563891e-09,-1.7437937021e-08,0.760353538154,0.649509427966,"(-1.0, -1.0, -1.0, -1.0, -1.0, -1.0, -1.0, -1.0, -1.0)",-0.00051501075166,-7.88763268938e-05,-0.000272041090632,"(0.0, 0.0, 0.0, 0.0, 0.0, 0.0, 0.0, 0.0, 0.0)",3.268777999e-08,-3.61788282423e-09,9.8000005607,"(0.0, 0.0, 0.0, 0.0, 0.0, 0.0, 0.0, 0.0, 0.0)"
1969/12/31/19:00:42.670000,4190,42,670000000,firefly/imugt_link,-3.93562858544e-09,-1.87999993768e-08,0.760353538174,0.649509427942,"(-1.0, -1.0, -1.0, -1.0, -1.0, -1.0, -1.0, -1.0, -1.0)",-0.000515958303883,-8.0048517053e-05,-0.000277972882197,"(0.0, 0.0, 0.0, 0.0, 0.0, 0.0, 0.0, 0.0, 0.0)",3.25935579651e-08,4.36732681971e-09,9.80000056762,"(0.0, 0.0, 0.0, 0.0, 0.0, 0.0, 0.0, 0.0, 0.0)"
1969/12/31/19:00:42.680000,4191,42,680000000,firefly/imugt_link,-2.25031290381e-09,-1.99033909268e-08,0.760353538192,0.649509427922,"(-1.0, -1.0, -1.0, -1.0, -1.0, -1.0, -1.0, -1.0, -1.0)",-0.000511929538014,-8.08152855346e-05,-0.000277124960726,"(0.0, 0.0, 0.0, 0.0, 0.0, 0.0, 0.0, 0.0, 0.0)",3.25441066208e-08,1.22328857464e-08,9.80000057029,"(0.0, 0.0, 0.0, 0.0, 0.0, 0.0, 0.0, 0.0, 0.0)"
1969/12/31/19:00:42.690000,4192,42,690000000,firefly/imugt_link,-3.90783976041e-10,-2.07450391012e-08,0.760353538207,0.649509427904,"(-1.0, -1.0, -1.0, -1.0, -1.0, -1.0, -1.0, -1.0, -1.0)",-0.000509779427338,-7.71756010113e-05,-0.000277082775138,"(0.0, 0.0, 0.0, 0.0, 0.0, 0.0, 0.0, 0.0, 0.0)",3.12838841451e-08,1.90168240204e-08,9.80000045018,"(0.0, 0.0, 0.0, 0.0, 0.0, 0.0, 0.0, 0.0, 0.0)"
1969/12/31/19:00:42.700000,4193,42,700000000,firefly/imugt_link,1.61135718896e-09,-2.13226849309e-08,0.760353538221,0.649509427888,"(-1.0, -1.0, -1.0, -1.0, -1.0, -1.0, -1.0, -1.0, -1.0)",-0.000514266821133,-7.57924049965e-05,-0.000277738826047,"(0.0, 0.0, 0.0, 0.0, 0.0, 0.0, 0.0, 0.0, 0.0)",2.96839702472e-08,2.53896916672e-08,9.80000036929,"(0.0, 0.0, 0.0, 0.0, 0.0, 0.0, 0.0, 0.0, 0.0)"
1969/12/31/19:00:42.710000,4194,42,710000000,firefly/imugt_link,3.73550045223e-09,-2.16346935424e-08,0.760353538234,0.649509427873,"(-1.0, -1.0, -1.0, -1.0, -1.0, -1.0, -1.0, -1.0, -1.0)",-0.000512746741779,-8.77478917593e-05,-0.000286852615448,"(0.0, 0.0, 0.0, 0.0, 0.0, 0.0, 0.0, 0.0, 0.0)",2.78673439889e-08,3.14478029384e-08,9.8000003149,"(0.0, 0.0, 0.0, 0.0, 0.0, 0.0, 0.0, 0.0, 0.0)"
1969/12/31/19:00:42.720000,4195,42,720000000,firefly/imugt_link,5.96810161737e-09,-2.16802553048e-08,0.760353538246,0.649509427858,"(-1.0, -1.0, -1.0, -1.0, -1.0, -1.0, -1.0, -1.0, -1.0)",-0.00050829779979,-9.2438646442e-05,-0.000287437774622,"(0.0, 0.0, 0.0, 0.0, 0.0, 0.0, 0.0, 0.0, 0.0)",2.59256487546e-08,3.72542453207e-08,9.80000027836,"(0.0, 0.0, 0.0, 0.0, 0.0, 0.0, 0.0, 0.0, 0.0)"
1969/12/31/19:00:42.730000,4196,42,730000000,firefly/imugt_link,8.29970323395e-09,-2.14592340695e-08,0.760353538258,0.649509427844,"(-1.0, -1.0, -1.0, -1.0, -1.0, -1.0, -1.0, -1.0, -1.0)",-0.000507647506366,-9.28758826645e-05,-0.000293126220613,"(0.0, 0.0, 0.0, 0.0, 0.0, 0.0, 0.0, 0.0, 0.0)",2.39138842886e-08,4.28547310913e-08,9.80000025383,"(0.0, 0.0, 0.0, 0.0, 0.0, 0.0, 0.0, 0.0, 0.0)"
1969/12/31/19:00:42.740000,4197,42,740000000,firefly/imugt_link,1.07232905419e-08,-2.0971623734e-08,0.76035353827,0.64950942783,"(-1.0, -1.0, -1.0, -1.0, -1.0, -1.0, -1.0, -1.0, -1.0)",-0.000513561601909,-9.79390381659e-05,-0.000293822632288,"(0.0, 0.0, 0.0, 0.0, 0.0, 0.0, 0.0, 0.0, 0.0)",2.18639938594e-08,4.82994178061e-08,9.80000023738,"(0.0, 0.0, 0.0, 0.0, 0.0, 0.0, 0.0, 0.0, 0.0)"
1969/12/31/19:00:42.760000,4198,42,750000000,firefly/imugt_link,1.31194458985e-08,-2.02554636289e-08,0.760353538282,0.649509427816,"(-1.0, -1.0, -1.0, -1.0, -1.0, -1.0, -1.0, -1.0, -1.0)",-0.000511480616995,-0.000100393087113,-0.000293124805355,"(0.0, 0.0, 0.0, 0.0, 0.0, 0.0, 0.0, 0.0, 0.0)",1.76967336066e-08,5.01342535268e-08,9.80000030743,"(0.0, 0.0, 0.0, 0.0, 0.0, 0.0, 0.0, 0.0, 0.0)"
1969/12/31/19:00:42.760000,4199,42,760000000,firefly/imugt_link,1.54257941715e-08,-1.93371981574e-08,0.760353538295,0.649509427801,"(-1.0, -1.0, -1.0, -1.0, -1.0, -1.0, -1.0, -1.0, -1.0)",-0.000515041348046,-0.000106414667091,-0.000294426679159,"(0.0, 0.0, 0.0, 0.0, 0.0, 0.0, 0.0, 0.0, 0.0)",1.33509319439e-08,5.11442478965e-08,9.80000030973,"(0.0, 0.0, 0.0, 0.0, 0.0, 0.0, 0.0, 0.0, 0.0)"
1969/12/31/19:00:42.760000,4200,42,770000000,firefly/imugt_link,1.7608874132e-08,-1.82353211913e-08,0.760353538308,0.649509427786,"(-1.0, -1.0, -1.0, -1.0, -1.0, -1.0, -1.0, -1.0, -1.0)",-0.000515705626131,-0.000112631496534,-0.000291585498225,"(0.0, 0.0, 0.0, 0.0, 0.0, 0.0, 0.0, 0.0, 0.0)",8.92404900524e-09,5.15660761473e-08,9.80000029121,"(0.0, 0.0, 0.0, 0.0, 0.0, 0.0, 0.0, 0.0, 0.0)"
1969/12/31/19:00:42.780000,4201,42,780000000,firefly/imugt_link,1.96498275542e-08,-1.69627983053e-08,0.760353538322,0.64950942777,"(-1.0, -1.0, -1.0, -1.0, -1.0, -1.0, -1.0, -1.0, -1.0)",-0.000516640558655,-0.00011818822997,-0.00029105225828,"(0.0, 0.0, 0.0, 0.0, 0.0, 0.0, 0.0, 0.0, 0.0)",4.47050789389e-09,5.15780271178e-08,9.80000026977,"(0.0, 0.0, 0.0, 0.0, 0.0, 0.0, 0.0, 0.0, 0.0)"
1969/12/31/19:00:42.790000,4202,42,790000000,firefly/imugt_link,2.15371441806e-08,-1.55283891924e-08,0.760353538336,0.649509427753,"(-1.0, -1.0, -1.0, -1.0, -1.0, -1.0, -1.0, -1.0, -1.0)",-0.000511602578265,-0.000115284985676,-0.000293698383207,"(0.0, 0.0, 0.0, 0.0, 0.0, 0.0, 0.0, 0.0, 0.0)",1.09367203754e-11,5.13230900677e-08,9.80000025135,"(0.0, 0.0, 0.0, 0.0, 0.0, 0.0, 0.0, 0.0, 0.0)"
1969/12/31/19:00:42.800000,4203,42,800000000,firefly/imugt_link,2.32634157404e-08,-1.39375953505e-08,0.76035353835,0.649509427737,"(-1.0, -1.0, -1.0, -1.0, -1.0, -1.0, -1.0, -1.0, -1.0)",-0.000515067369412,-0.000119621584172,-0.000285787782763,"(0.0, 0.0, 0.0, 0.0, 0.0, 0.0, 0.0, 0.0, 0.0)",-4.44163370141e-09,5.09221096858e-08,9.80000023719,"(0.0, 0.0, 0.0, 0.0, 0.0, 0.0, 0.0, 0.0, 0.0)"
1969/12/31/19:00:42.810000,4204,42,810000000,firefly/imugt_link,2.47163599316e-08,-1.22626263586e-08,0.760353538364,0.649509427721,"(-1.0, -1.0, -1.0, -1.0, -1.0, -1.0, -1.0, -1.0, -1.0)",-0.000516683300127,-0.000113715793024,-0.000282550887511,"(0.0, 0.0, 0.0, 0.0, 0.0, 0.0, 0.0, 0.0, 0.0)",-1.01280306304e-08,4.63154356747e-08,9.80000030797,"(0.0, 0.0, 0.0, 0.0, 0.0, 0.0, 0.0, 0.0, 0.0)"
1969/12/31/19:00:42.820000,4205,42,820000000,firefly/imugt_link,2.58349130538e-08,-1.05363385166e-08,0.760353538377,0.649509427705,"(-1.0, -1.0, -1.0, -1.0, -1.0, -1.0, -1.0, -1.0, -1.0)",-0.000513526526167,-0.000114905834761,-0.000276917842895,"(0.0, 0.0, 0.0, 0.0, 0.0, 0.0, 0.0, 0.0, 0.0)",-1.61619597996e-08,4.10818701363e-08,9.80000031039,"(0.0, 0.0, 0.0, 0.0, 0.0, 0.0, 0.0, 0.0, 0.0)"
1969/12/31/19:00:42.840000,4206,42,830000000,firefly/imugt_link,2.65846032411e-08,-8.77419690444e-09,0.760353538389,0.649509427691,"(-1.0, -1.0, -1.0, -1.0, -1.0, -1.0, -1.0, -1.0, -1.0)",-0.0005110497021,-0.000113051658166,-0.000273208315936,"(0.0, 0.0, 0.0, 0.0, 0.0, 0.0, 0.0, 0.0, 0.0)",-2.24323021072e-08,3.5430595603e-08,9.80000029178,"(0.0, 0.0, 0.0, 0.0, 0.0, 0.0, 0.0, 0.0, 0.0)"
1969/12/31/19:00:42.840000,4207,42,840000000,firefly/imugt_link,2.69548999364e-08,-7.02916681237e-09,0.760353538402,0.649509427676,"(-1.0, -1.0, -1.0, -1.0, -1.0, -1.0, -1.0, -1.0, -1.0)",-0.000514992360582,-0.000117626480409,-0.000276311926502,"(0.0, 0.0, 0.0, 0.0, 0.0, 0.0, 0.0, 0.0, 0.0)",-2.76123884258e-08,2.85673176459e-08,9.80000014924,"(0.0, 0.0, 0.0, 0.0, 0.0, 0.0, 0.0, 0.0, 0.0)"
1969/12/31/19:00:42.840000,4208,42,850000000,firefly/imugt_link,2.69398070847e-08,-5.33487463078e-09,0.760353538416,0.649509427659,"(-1.0, -1.0, -1.0, -1.0, -1.0, -1.0, -1.0, -1.0, -1.0)",-0.00051982995311,-0.00012110816271,-0.000277308578903,"(0.0, 0.0, 0.0, 0.0, 0.0, 0.0, 0.0, 0.0, 0.0)",-3.25180370883e-08,2.12770511147e-08,9.8000000496,"(0.0, 0.0, 0.0, 0.0, 0.0, 0.0, 0.0, 0.0, 0.0)"
1969/12/31/19:00:42.840000,4209,42,860000000,firefly/imugt_link,2.65360847806e-08,-3.71261730941e-09,0.760353538432,0.64950942764,"(-1.0, -1.0, -1.0, -1.0, -1.0, -1.0, -1.0, -1.0, -1.0)",-0.000523941969182,-0.000124951780819,-0.00027228795091,"(0.0, 0.0, 0.0, 0.0, 0.0, 0.0, 0.0, 0.0, 0.0)",-3.72122893431e-08,1.37411430389e-08,9.79999998098,"(0.0, 0.0, 0.0, 0.0, 0.0, 0.0, 0.0, 0.0, 0.0)"
1969/12/31/19:00:42.860000,4210,42,870000000,firefly/imugt_link,2.58172374512e-08,-2.18063668269e-09,0.760353538449,0.64950942762,"(-1.0, -1.0, -1.0, -1.0, -1.0, -1.0, -1.0, -1.0, -1.0)",-0.000525438217443,-0.000123971977076,-0.000272048934489,"(0.0, 0.0, 0.0, 0.0, 0.0, 0.0, 0.0, 0.0, 0.0)",-3.97042172327e-08,7.62124327816e-09,9.80000012881,"(0.0, 0.0, 0.0, 0.0, 0.0, 0.0, 0.0, 0.0, 0.0)"
1969/12/31/19:00:42.880000,4211,42,880000000,firefly/imugt_link,2.48171389062e-08,-7.50484515308e-10,0.760353538466,0.649509427601,"(-1.0, -1.0, -1.0, -1.0, -1.0, -1.0, -1.0, -1.0, -1.0)",-0.000520903727171,-0.000119651667069,-0.000269335360483,"(0.0, 0.0, 0.0, 0.0, 0.0, 0.0, 0.0, 0.0, 0.0)",-4.18362460813e-08,1.62168211531e-09,9.80000018697,"(0.0, 0.0, 0.0, 0.0, 0.0, 0.0, 0.0, 0.0, 0.0)"
1969/12/31/19:00:42.890000,4212,42,890000000,firefly/imugt_link,2.35512477579e-08,5.70191774527e-10,0.760353538483,0.649509427581,"(-1.0, -1.0, -1.0, -1.0, -1.0, -1.0, -1.0, -1.0, -1.0)",-0.000518427046381,-0.000119645526036,-0.000266353517324,"(0.0, 0.0, 0.0, 0.0, 0.0, 0.0, 0.0, 0.0, 0.0)",-4.37247529389e-08,-4.26451818614e-09,9.80000020755,"(0.0, 0.0, 0.0, 0.0, 0.0, 0.0, 0.0, 0.0, 0.0)"
1969/12/31/19:00:42.890000,4213,42,900000000,firefly/imugt_link,2.20265638255e-08,1.7765565096e-09,0.7603535385,0.649509427561,"(-1.0, -1.0, -1.0, -1.0, -1.0, -1.0, -1.0, -1.0, -1.0)",-0.000520948080524,-0.000120118661455,-0.000267904851852,"(0.0, 0.0, 0.0, 0.0, 0.0, 0.0, 0.0, 0.0, 0.0)",-4.54673392409e-08,-1.00344575842e-08,9.80000021309,"(0.0, 0.0, 0.0, 0.0, 0.0, 0.0, 0.0, 0.0, 0.0)"
1969/12/31/19:00:42.900000,4214,42,910000000,firefly/imugt_link,2.02466203009e-08,2.86591921873e-09,0.760353538516,0.649509427542,"(-1.0, -1.0, -1.0, -1.0, -1.0, -1.0, -1.0, -1.0, -1.0)",-0.000522881922568,-0.000122854898549,-0.000272686839624,"(0.0, 0.0, 0.0, 0.0, 0.0, 0.0, 0.0, 0.0, 0.0)",-4.71324485157e-08,-1.56779180267e-08,9.80000021308,"(0.0, 0.0, 0.0, 0.0, 0.0, 0.0, 0.0, 0.0, 0.0)"
1969/12/31/19:00:42.930000,4215,42,920000000,firefly/imugt_link,1.82603613398e-08,3.83415056944e-09,0.760353538532,0.649509427523,"(-1.0, -1.0, -1.0, -1.0, -1.0, -1.0, -1.0, -1.0, -1.0)",-0.000520084705128,-0.000116903304875,-0.000272173338566,"(0.0, 0.0, 0.0, 0.0, 0.0, 0.0, 0.0, 0.0, 0.0)",-4.74994586937e-08,-2.02389109568e-08,9.80000009043,"(0.0, 0.0, 0.0, 0.0, 0.0, 0.0, 0.0, 0.0, 0.0)"
1969/12/31/19:00:42.930000,4216,42,930000000,firefly/imugt_link,1.61006413945e-08,4.67846209867e-09,0.760353538546,0.649509427507,"(-1.0, -1.0, -1.0, -1.0, -1.0, -1.0, -1.0, -1.0, -1.0)",-0.000514827673236,-0.000115714350853,-0.000277301698044,"(0.0, 0.0, 0.0, 0.0, 0.0, 0.0, 0.0, 0.0, 0.0)",-4.74597215378e-08,-2.43908112982e-08,9.80000000746,"(0.0, 0.0, 0.0, 0.0, 0.0, 0.0, 0.0, 0.0, 0.0)"
1969/12/31/19:00:42.940000,4217,42,940000000,firefly/imugt_link,1.37890118722e-08,5.39672196096e-09,0.760353538558,0.649509427493,"(-1.0, -1.0, -1.0, -1.0, -1.0, -1.0, -1.0, -1.0, -1.0)",-0.000519506647135,-0.000114378172584,-0.000276551732995,"(0.0, 0.0, 0.0, 0.0, 0.0, 0.0, 0.0, 0.0, 0.0)",-4.71556629192e-08,-2.82489898968e-08,9.79999995151,"(0.0, 0.0, 0.0, 0.0, 0.0, 0.0, 0.0, 0.0, 0.0)"
1969/12/31/19:00:42.950000,4218,42,950000000,firefly/imugt_link,1.13392393642e-08,5.9873911878e-09,0.760353538567,0.649509427482,"(-1.0, -1.0, -1.0, -1.0, -1.0, -1.0, -1.0, -1.0, -1.0)",-0.000519188307236,-0.000117113569783,-0.000274663103872,"(0.0, 0.0, 0.0, 0.0, 0.0, 0.0, 0.0, 0.0, 0.0)",-4.67036393664e-08,-3.19010168837e-08,9.79999991385,"(0.0, 0.0, 0.0, 0.0, 0.0, 0.0, 0.0, 0.0, 0.0)"
1969/12/31/19:00:42.960000,4219,42,960000000,firefly/imugt_link,8.76035793638e-09,6.44963478419e-09,0.760353538574,0.649509427474,"(-1.0, -1.0, -1.0, -1.0, -1.0, -1.0, -1.0, -1.0, -1.0)",-0.000517316221565,-0.000124462912987,-0.000278044856839,"(0.0, 0.0, 0.0, 0.0, 0.0, 0.0, 0.0, 0.0, 0.0)",-4.61832740604e-08,-3.53995621451e-08,9.79999988854,"(0.0, 0.0, 0.0, 0.0, 0.0, 0.0, 0.0, 0.0, 0.0)"
1969/12/31/19:00:42.970000,4220,42,970000000,firefly/imugt_link,6.09556983757e-09,6.82600700791e-09,0.760353538579,0.649509427468,"(-1.0, -1.0, -1.0, -1.0, -1.0, -1.0, -1.0, -1.0, -1.0)",-0.000510505076362,-0.000123503021133,-0.000274565176091,"(0.0, 0.0, 0.0, 0.0, 0.0, 0.0, 0.0, 0.0, 0.0)",-4.56394990346e-08,-3.68641986891e-08,9.79999975056,"(0.0, 0.0, 0.0, 0.0, 0.0, 0.0, 0.0, 0.0, 0.0)"
1969/12/31/19:00:42.980000,4221,42,980000000,firefly/imugt_link,3.39124194696e-09,7.06898028152e-09,0.760353538585,0.649509427462,"(-1.0, -1.0, -1.0, -1.0, -1.0, -1.0, -1.0, -1.0, -1.0)",-0.000509638320608,-0.000127614974578,-0.000275596373804,"(0.0, 0.0, 0.0, 0.0, 0.0, 0.0, 0.0, 0.0, 0.0)",-4.29933858987e-08,-3.92255698942e-08,9.79999986014,"(0.0, 0.0, 0.0, 0.0, 0.0, 0.0, 0.0, 0.0, 0.0)"
1969/12/31/19:00:42.990000,4222,42,990000000,firefly/imugt_link,6.74867536308e-10,7.16338457045e-09,0.760353538592,0.649509427454,"(-1.0, -1.0, -1.0, -1.0, -1.0, -1.0, -1.0, -1.0, -1.0)",-0.000511452214794,-0.000120747681502,-0.000268053266571,"(0.0, 0.0, 0.0, 0.0, 0.0, 0.0, 0.0, 0.0, 0.0)",-4.01770262259e-08,-4.1252970136e-08,9.79999988892,"(0.0, 0.0, 0.0, 0.0, 0.0, 0.0, 0.0, 0.0, 0.0)"
1969/12/31/19:00:43.000000,4223,43,0,firefly/imugt_link,-2.03743223715e-09,7.10651536372e-09,0.760353538601,0.649509427443,"(-1.0, -1.0, -1.0, -1.0, -1.0, -1.0, -1.0, -1.0, -1.0)",-0.000515113675826,-0.000118057229619,-0.000259592244797,"(0.0, 0.0, 0.0, 0.0, 0.0, 0.0, 0.0, 0.0, 0.0)",-3.72969618937e-08,-4.30663323257e-08,9.79999988815,"(0.0, 0.0, 0.0, 0.0, 0.0, 0.0, 0.0, 0.0, 0.0)"
1969/12/31/19:00:43.010000,4224,43,10000000,firefly/imugt_link,-4.6585101113e-09,6.89554488716e-09,0.760353538611,0.649509427431,"(-1.0, -1.0, -1.0, -1.0, -1.0, -1.0, -1.0, -1.0, -1.0)",-0.000509424069857,-0.000118889582005,-0.000256573846458,"(0.0, 0.0, 0.0, 0.0, 0.0, 0.0, 0.0, 0.0, 0.0)",-3.23209729518e-08,-4.31492916247e-08,9.80000008069,"(0.0, 0.0, 0.0, 0.0, 0.0, 0.0, 0.0, 0.0, 0.0)"
1969/12/31/19:00:43.020000,4225,43,20000000,firefly/imugt_link,-7.14744656549e-09,6.53135306124e-09,0.760353538622,0.649509427419,"(-1.0, -1.0, -1.0, -1.0, -1.0, -1.0, -1.0, -1.0, -1.0)",-0.000503999896129,-0.000128024800055,-0.000256483200477,"(0.0, 0.0, 0.0, 0.0, 0.0, 0.0, 0.0, 0.0, 0.0)",-2.71787940873e-08,-4.29846623247e-08,9.80000016105,"(0.0, 0.0, 0.0, 0.0, 0.0, 0.0, 0.0, 0.0, 0.0)"
1969/12/31/19:00:43.030000,4226,43,30000000,firefly/imugt_link,-9.48403476198e-09,6.01570966806e-09,0.760353538632,0.649509427406,"(-1.0, -1.0, -1.0, -1.0, -1.0, -1.0, -1.0, -1.0, -1.0)",-0.000504535005761,-0.00012415974268,-0.000252387081977,"(0.0, 0.0, 0.0, 0.0, 0.0, 0.0, 0.0, 0.0, 0.0)",-2.19450816786e-08,-4.26585208063e-08,9.80000019303,"(0.0, 0.0, 0.0, 0.0, 0.0, 0.0, 0.0, 0.0, 0.0)"
1969/12/31/19:00:43.040000,4227,43,40000000,firefly/imugt_link,-1.16577921427e-08,5.3501192892e-09,0.760353538643,0.649509427394,"(-1.0, -1.0, -1.0, -1.0, -1.0, -1.0, -1.0, -1.0, -1.0)",-0.000499821056536,-0.000119779353362,-0.000254615266877,"(0.0, 0.0, 0.0, 0.0, 0.0, 0.0, 0.0, 0.0, 0.0)",-1.66813361705e-08,-4.22510562242e-08,9.80000020463,"(0.0, 0.0, 0.0, 0.0, 0.0, 0.0, 0.0, 0.0, 0.0)"
1969/12/31/19:00:43.050000,4228,43,50000000,firefly/imugt_link,-1.35557874045e-08,4.60450201323e-09,0.760353538654,0.649509427381,"(-1.0, -1.0, -1.0, -1.0, -1.0, -1.0, -1.0, -1.0, -1.0)",-0.000495196604792,-0.000119333855886,-0.000252052442827,"(0.0, 0.0, 0.0, 0.0, 0.0, 0.0, 0.0, 0.0, 0.0)",-1.01847258003e-08,-3.7677877452e-08,9.80000028908,"(0.0, 0.0, 0.0, 0.0, 0.0, 0.0, 0.0, 0.0, 0.0)"
1969/12/31/19:00:43.060000,4229,43,60000000,firefly/imugt_link,-1.51172906885e-08,3.81021153505e-09,0.760353538665,0.649509427367,"(-1.0, -1.0, -1.0, -1.0, -1.0, -1.0, -1.0, -1.0, -1.0)",-0.00049936317606,-0.000122192169313,-0.000258787760198,"(0.0, 0.0, 0.0, 0.0, 0.0, 0.0, 0.0, 0.0, 0.0)",-3.36339864256e-09,-3.25046985977e-08,9.80000029905,"(0.0, 0.0, 0.0, 0.0, 0.0, 0.0, 0.0, 0.0, 0.0)"
1969/12/31/19:00:43.070000,4230,43,70000000,firefly/imugt_link,-1.63083865693e-08,2.98148840063e-09,0.760353538678,0.649509427353,"(-1.0, -1.0, -1.0, -1.0, -1.0, -1.0, -1.0, -1.0, -1.0)",-0.000502909804136,-0.000119865485225,-0.000263879268225,"(0.0, 0.0, 0.0, 0.0, 0.0, 0.0, 0.0, 0.0, 0.0)",3.6622604586e-09,-2.6930091015e-08,9.80000028477,"(0.0, 0.0, 0.0, 0.0, 0.0, 0.0, 0.0, 0.0, 0.0)"
1969/12/31/19:00:43.080000,4231,43,80000000,firefly/imugt_link,-1.71189810268e-08,2.17033436884e-09,0.76035353869,0.649509427339,"(-1.0, -1.0, -1.0, -1.0, -1.0, -1.0, -1.0, -1.0, -1.0)",-0.000502974250751,-0.000124361515232,-0.000265992322604,"(0.0, 0.0, 0.0, 0.0, 0.0, 0.0, 0.0, 0.0, 0.0)",9.55794551438e-09,-2.01458157679e-08,9.80000014478,"(0.0, 0.0, 0.0, 0.0, 0.0, 0.0, 0.0, 0.0, 0.0)"
1969/12/31/19:00:43.090000,4232,43,90000000,firefly/imugt_link,-1.75433132572e-08,1.40986411735e-09,0.7603535387,0.649509427326,"(-1.0, -1.0, -1.0, -1.0, -1.0, -1.0, -1.0, -1.0, -1.0)",-0.000508905665513,-0.000123669840558,-0.000264039896982,"(0.0, 0.0, 0.0, 0.0, 0.0, 0.0, 0.0, 0.0, 0.0)",1.51297679826e-08,-1.29204569449e-08,9.80000004672,"(0.0, 0.0, 0.0, 0.0, 0.0, 0.0, 0.0, 0.0, 0.0)"
1969/12/31/19:00:43.100000,4233,43,100000000,firefly/imugt_link,-1.75782323327e-08,7.21355090087e-10,0.760353538709,0.649509427316,"(-1.0, -1.0, -1.0, -1.0, -1.0, -1.0, -1.0, -1.0, -1.0)",-0.000506058417496,-0.000113896862191,-0.000262542986681,"(0.0, 0.0, 0.0, 0.0, 0.0, 0.0, 0.0, 0.0, 0.0)",2.04320863785e-08,-5.4226882786e-09,9.7999999791,"(0.0, 0.0, 0.0, 0.0, 0.0, 0.0, 0.0, 0.0, 0.0)"
1969/12/31/19:00:43.110000,4234,43,110000000,firefly/imugt_link,-1.72223361885e-08,1.18808603643e-10,0.760353538715,0.649509427309,"(-1.0, -1.0, -1.0, -1.0, -1.0, -1.0, -1.0, -1.0, -1.0)",-0.000505362537482,-0.000114840310029,-0.000263483650465,"(0.0, 0.0, 0.0, 0.0, 0.0, 0.0, 0.0, 0.0, 0.0)",2.55051233038e-08,2.22757842511e-09,9.79999993291,"(0.0, 0.0, 0.0, 0.0, 0.0, 0.0, 0.0, 0.0, 0.0)"
1969/12/31/19:00:43.120000,4235,43,120000000,firefly/imugt_link,-1.6550934218e-08,-3.83868912923e-10,0.760353538721,0.649509427302,"(-1.0, -1.0, -1.0, -1.0, -1.0, -1.0, -1.0, -1.0, -1.0)",-0.000498230852901,-0.000117623065942,-0.000260650944068,"(0.0, 0.0, 0.0, 0.0, 0.0, 0.0, 0.0, 0.0, 0.0)",2.83362334304e-08,8.39435275825e-09,9.80000009869,"(0.0, 0.0, 0.0, 0.0, 0.0, 0.0, 0.0, 0.0, 0.0)"
1969/12/31/19:00:43.130000,4236,43,130000000,firefly/imugt_link,-1.55982742972e-08,-7.78307910999e-10,0.760353538726,0.649509427296,"(-1.0, -1.0, -1.0, -1.0, -1.0, -1.0, -1.0, -1.0, -1.0)",-0.00049979678572,-0.000120218879063,-0.000262739876433,"(0.0, 0.0, 0.0, 0.0, 0.0, 0.0, 0.0, 0.0, 0.0)",3.08089435731e-08,1.44138763682e-08,9.80000016772,"(0.0, 0.0, 0.0, 0.0, 0.0, 0.0, 0.0, 0.0, 0.0)"
1969/12/31/19:00:43.130000,4237,43,140000000,firefly/imugt_link,-1.43799637465e-08,-1.0595404256e-09,0.760353538732,0.64950942729,"(-1.0, -1.0, -1.0, -1.0, -1.0, -1.0, -1.0, -1.0, -1.0)",-0.000499063576028,-0.000115752297151,-0.000269972772886,"(0.0, 0.0, 0.0, 0.0, 0.0, 0.0, 0.0, 0.0, 0.0)",3.30340436353e-08,2.02965035909e-08,9.80000019508,"(0.0, 0.0, 0.0, 0.0, 0.0, 0.0, 0.0, 0.0, 0.0)"
1969/12/31/19:00:43.140000,4238,43,150000000,firefly/imugt_link,-1.29866471632e-08,-1.26477884265e-09,0.760353538737,0.649509427284,"(-1.0, -1.0, -1.0, -1.0, -1.0, -1.0, -1.0, -1.0, -1.0)",-0.000493335493432,-0.000119308335208,-0.000266565052437,"(0.0, 0.0, 0.0, 0.0, 0.0, 0.0, 0.0, 0.0, 0.0)",3.38261943039e-08,2.31805901616e-08,9.79999996292,"(0.0, 0.0, 0.0, 0.0, 0.0, 0.0, 0.0, 0.0, 0.0)"
1969/12/31/19:00:43.150000,4239,43,160000000,firefly/imugt_link,-1.14780280316e-08,-1.41907969371e-09,0.760353538742,0.649509427278,"(-1.0, -1.0, -1.0, -1.0, -1.0, -1.0, -1.0, -1.0, -1.0)",-0.000487582882353,-0.000126047134647,-0.000266430510491,"(0.0, 0.0, 0.0, 0.0, 0.0, 0.0, 0.0, 0.0, 0.0)",3.40972009785e-08,2.50285369344e-08,9.7999998035,"(0.0, 0.0, 0.0, 0.0, 0.0, 0.0, 0.0, 0.0, 0.0)"
1969/12/31/19:00:43.170000,4240,43,170000000,firefly/imugt_link,-9.89355682563e-09,-1.53921366368e-09,0.760353538747,0.649509427271,"(-1.0, -1.0, -1.0, -1.0, -1.0, -1.0, -1.0, -1.0, -1.0)",-0.000486647956325,-0.000123039258856,-0.000266751462578,"(0.0, 0.0, 0.0, 0.0, 0.0, 0.0, 0.0, 0.0, 0.0)",3.4003275493e-08,2.61009264258e-08,9.79999969493,"(0.0, 0.0, 0.0, 0.0, 0.0, 0.0, 0.0, 0.0, 0.0)"
1969/12/31/19:00:43.180000,4241,43,180000000,firefly/imugt_link,-8.2590563235e-09,-1.63640762452e-09,0.760353538753,0.649509427265,"(-1.0, -1.0, -1.0, -1.0, -1.0, -1.0, -1.0, -1.0, -1.0)",-0.000483817713111,-0.000121063382768,-0.000269085884127,"(0.0, 0.0, 0.0, 0.0, 0.0, 0.0, 0.0, 0.0, 0.0)",3.36752738921e-08,2.66120022303e-08,9.79999962138,"(0.0, 0.0, 0.0, 0.0, 0.0, 0.0, 0.0, 0.0, 0.0)"
1969/12/31/19:00:43.190000,4242,43,190000000,firefly/imugt_link,-6.59134193934e-09,-1.71823910645e-09,0.760353538758,0.649509427259,"(-1.0, -1.0, -1.0, -1.0, -1.0, -1.0, -1.0, -1.0, -1.0)",-0.000480385071153,-0.000127812410962,-0.000267590418387,"(0.0, 0.0, 0.0, 0.0, 0.0, 0.0, 0.0, 0.0, 0.0)",3.32114250068e-08,2.67268170796e-08,9.79999957174,"(0.0, 0.0, 0.0, 0.0, 0.0, 0.0, 0.0, 0.0, 0.0)"
1969/12/31/19:00:43.200000,4243,43,200000000,firefly/imugt_link,-4.90165083436e-09,-1.78985622396e-09,0.760353538763,0.649509427253,"(-1.0, -1.0, -1.0, -1.0, -1.0, -1.0, -1.0, -1.0, -1.0)",-0.000484152090277,-0.000124699333335,-0.000266974370696,"(0.0, 0.0, 0.0, 0.0, 0.0, 0.0, 0.0, 0.0, 0.0)",3.26753545273e-08,2.65657820272e-08,9.7999995383,"(0.0, 0.0, 0.0, 0.0, 0.0, 0.0, 0.0, 0.0, 0.0)"
1969/12/31/19:00:43.220000,4244,43,210000000,firefly/imugt_link,-3.19789312963e-09,-1.85472459761e-09,0.760353538769,0.649509427247,"(-1.0, -1.0, -1.0, -1.0, -1.0, -1.0, -1.0, -1.0, -1.0)",-0.000483926674832,-0.000124555354631,-0.000265022941787,"(0.0, 0.0, 0.0, 0.0, 0.0, 0.0, 0.0, 0.0, 0.0)",3.2107307318e-08,2.6218592152e-08,9.79999951582,"(0.0, 0.0, 0.0, 0.0, 0.0, 0.0, 0.0, 0.0, 0.0)"
1969/12/31/19:00:43.230000,4245,43,220000000,firefly/imugt_link,-1.48570850124e-09,-1.9151227089e-09,0.760353538774,0.64950942724,"(-1.0, -1.0, -1.0, -1.0, -1.0, -1.0, -1.0, -1.0, -1.0)",-0.000477571531012,-0.00012650977914,-0.000263129649413,"(0.0, 0.0, 0.0, 0.0, 0.0, 0.0, 0.0, 0.0, 0.0)",3.154097548e-08,2.57590919782e-08,9.79999950072,"(0.0, 0.0, 0.0, 0.0, 0.0, 0.0, 0.0, 0.0, 0.0)"
1969/12/31/19:00:43.230000,4246,43,230000000,firefly/imugt_link,2.31224836168e-10,-1.97253337715e-09,0.760353538779,0.649509427234,"(-1.0, -1.0, -1.0, -1.0, -1.0, -1.0, -1.0, -1.0, -1.0)",-0.000479435905691,-0.000127023977391,-0.000260720549611,"(0.0, 0.0, 0.0, 0.0, 0.0, 0.0, 0.0, 0.0, 0.0)",3.10114175266e-08,2.52508804262e-08,9.79999949059,"(0.0, 0.0, 0.0, 0.0, 0.0, 0.0, 0.0, 0.0, 0.0)"
1969/12/31/19:00:43.240000,4247,43,240000000,firefly/imugt_link,1.95090576629e-09,-2.02795789977e-09,0.760353538785,0.649509427228,"(-1.0, -1.0, -1.0, -1.0, -1.0, -1.0, -1.0, -1.0, -1.0)",-0.000475124282652,-0.000129135069527,-0.000257015937308,"(0.0, 0.0, 0.0, 0.0, 0.0, 0.0, 0.0, 0.0, 0.0)",3.05488041121e-08,2.47432661367e-08,9.79999948379,"(0.0, 0.0, 0.0, 0.0, 0.0, 0.0, 0.0, 0.0, 0.0)"
1969/12/31/19:00:43.250000,4248,43,250000000,firefly/imugt_link,3.67234906085e-09,-2.08211419132e-09,0.76035353879,0.649509427222,"(-1.0, -1.0, -1.0, -1.0, -1.0, -1.0, -1.0, -1.0, -1.0)",-0.000466708410071,-0.000132003279334,-0.000259552816075,"(0.0, 0.0, 0.0, 0.0, 0.0, 0.0, 0.0, 0.0, 0.0)",3.01675114228e-08,2.4265393581e-08,9.79999947923,"(0.0, 0.0, 0.0, 0.0, 0.0, 0.0, 0.0, 0.0, 0.0)"
1969/12/31/19:00:43.260000,4249,43,260000000,firefly/imugt_link,5.39477703783e-09,-2.13551139035e-09,0.760353538795,0.649509427215,"(-1.0, -1.0, -1.0, -1.0, -1.0, -1.0, -1.0, -1.0, -1.0)",-0.000461522312337,-0.000127480143255,-0.000261897863629,"(0.0, 0.0, 0.0, 0.0, 0.0, 0.0, 0.0, 0.0, 0.0)",2.98647326017e-08,2.38291091969e-08,9.79999947617,"(0.0, 0.0, 0.0, 0.0, 0.0, 0.0, 0.0, 0.0, 0.0)"
1969/12/31/19:00:43.270000,4250,43,270000000,firefly/imugt_link,7.11720267949e-09,-2.18846294987e-09,0.7603535388,0.649509427209,"(-1.0, -1.0, -1.0, -1.0, -1.0, -1.0, -1.0, -1.0, -1.0)",-0.000466989808678,-0.000120859848471,-0.000261007758512,"(0.0, 0.0, 0.0, 0.0, 0.0, 0.0, 0.0, 0.0, 0.0)",2.96317473662e-08,2.34393129776e-08,9.79999947412,"(0.0, 0.0, 0.0, 0.0, 0.0, 0.0, 0.0, 0.0, 0.0)"
1969/12/31/19:00:43.280000,4251,43,280000000,firefly/imugt_link,8.76081782134e-09,-2.23655743626e-09,0.760353538807,0.649509427201,"(-1.0, -1.0, -1.0, -1.0, -1.0, -1.0, -1.0, -1.0, -1.0)",-0.000467648837807,-0.00011940704384,-0.000265680810294,"(0.0, 0.0, 0.0, 0.0, 0.0, 0.0, 0.0, 0.0, 0.0)",2.73570615645e-08,2.1505527907e-08,9.79999967482,"(0.0, 0.0, 0.0, 0.0, 0.0, 0.0, 0.0, 0.0, 0.0)"
1969/12/31/19:00:43.290000,4252,43,290000000,firefly/imugt_link,1.02902399919e-08,-2.27781583822e-09,0.760353538817,0.64950942719,"(-1.0, -1.0, -1.0, -1.0, -1.0, -1.0, -1.0, -1.0, -1.0)",-0.000472097963956,-0.000127207536214,-0.000267538199251,"(0.0, 0.0, 0.0, 0.0, 0.0, 0.0, 0.0, 0.0, 0.0)",2.49473751217e-08,1.94781771239e-08,9.7999997647,"(0.0, 0.0, 0.0, 0.0, 0.0, 0.0, 0.0, 0.0, 0.0)"
1969/12/31/19:00:43.300000,4253,43,300000000,firefly/imugt_link,1.1690002733e-08,-2.31139197845e-09,0.760353538829,0.649509427176,"(-1.0, -1.0, -1.0, -1.0, -1.0, -1.0, -1.0, -1.0, -1.0)",-0.000469796723102,-0.000125110246948,-0.000266212100129,"(0.0, 0.0, 0.0, 0.0, 0.0, 0.0, 0.0, 0.0, 0.0)",2.24769577387e-08,1.74154948106e-08,9.79999980488,"(0.0, 0.0, 0.0, 0.0, 0.0, 0.0, 0.0, 0.0, 0.0)"
1969/12/31/19:00:43.310000,4254,43,310000000,firefly/imugt_link,1.29534612144e-08,-2.33696435814e-09,0.760353538843,0.649509427159,"(-1.0, -1.0, -1.0, -1.0, -1.0, -1.0, -1.0, -1.0, -1.0)",-0.000469539411576,-0.000120361604156,-0.000264989485123,"(0.0, 0.0, 0.0, 0.0, 0.0, 0.0, 0.0, 0.0, 0.0)",1.99913857894e-08,1.53523909717e-08,9.79999982279,"(0.0, 0.0, 0.0, 0.0, 0.0, 0.0, 0.0, 0.0, 0.0)"
1969/12/31/19:00:43.320000,4255,43,320000000,firefly/imugt_link,1.40163762214e-08,-2.42597505996e-09,0.76035353886,0.64950942714,"(-1.0, -1.0, -1.0, -1.0, -1.0, -1.0, -1.0, -1.0, -1.0)",-0.00046706528409,-0.000123380515267,-0.000264952654144,"(0.0, 0.0, 0.0, 0.0, 0.0, 0.0, 0.0, 0.0, 0.0)",1.75130799116e-08,1.01096251174e-08,9.80000003283,"(0.0, 0.0, 0.0, 0.0, 0.0, 0.0, 0.0, 0.0, 0.0)"
1969/12/31/19:00:43.330000,4256,43,330000000,firefly/imugt_link,1.48495656422e-08,-2.6104196838e-09,0.760353538876,0.649509427121,"(-1.0, -1.0, -1.0, -1.0, -1.0, -1.0, -1.0, -1.0, -1.0)",-0.000467428687149,-0.000124184593521,-0.000272195380232,"(0.0, 0.0, 0.0, 0.0, 0.0, 0.0, 0.0, 0.0, 0.0)",1.50559529534e-08,4.57249253789e-09,9.80000012714,"(0.0, 0.0, 0.0, 0.0, 0.0, 0.0, 0.0, 0.0, 0.0)"
1969/12/31/19:00:43.340000,4257,43,340000000,firefly/imugt_link,1.54398485954e-08,-2.90464200561e-09,0.760353538893,0.649509427101,"(-1.0, -1.0, -1.0, -1.0, -1.0, -1.0, -1.0, -1.0, -1.0)",-0.00046338871366,-0.00012215823347,-0.000268962300313,"(0.0, 0.0, 0.0, 0.0, 0.0, 0.0, 0.0, 0.0, 0.0)",1.2640656706e-08,-1.14788434589e-09,9.80000016948,"(0.0, 0.0, 0.0, 0.0, 0.0, 0.0, 0.0, 0.0, 0.0)"
1969/12/31/19:00:43.350000,4258,43,350000000,firefly/imugt_link,1.57815951893e-08,-3.31509648418e-09,0.76035353891,0.649509427081,"(-1.0, -1.0, -1.0, -1.0, -1.0, -1.0, -1.0, -1.0, -1.0)",-0.000457859252022,-0.00012443124688,-0.000267654198306,"(0.0, 0.0, 0.0, 0.0, 0.0, 0.0, 0.0, 0.0, 0.0)",1.02848018803e-08,-6.96433901595e-09,9.80000018848,"(0.0, 0.0, 0.0, 0.0, 0.0, 0.0, 0.0, 0.0, 0.0)"
1969/12/31/19:00:43.360000,4259,43,360000000,firefly/imugt_link,1.58726455727e-08,-3.84459013177e-09,0.760353538927,0.649509427061,"(-1.0, -1.0, -1.0, -1.0, -1.0, -1.0, -1.0, -1.0, -1.0)",-0.000453214877261,-0.000129331457431,-0.000263700285804,"(0.0, 0.0, 0.0, 0.0, 0.0, 0.0, 0.0, 0.0, 0.0)",7.99181521038e-09,-1.28152311614e-08,9.80000019699,"(0.0, 0.0, 0.0, 0.0, 0.0, 0.0, 0.0, 0.0, 0.0)"
1969/12/31/19:00:43.380000,4260,43,370000000,firefly/imugt_link,1.57492275178e-08,-4.45077744633e-09,0.760353538945,0.64950942704,"(-1.0, -1.0, -1.0, -1.0, -1.0, -1.0, -1.0, -1.0, -1.0)",-0.000455939944949,-0.000131045336005,-0.000265006124435,"(0.0, 0.0, 0.0, 0.0, 0.0, 0.0, 0.0, 0.0, 0.0)",5.75279345159e-09,-1.67259245305e-08,9.80000007834,"(0.0, 0.0, 0.0, 0.0, 0.0, 0.0, 0.0, 0.0, 0.0)"
1969/12/31/19:00:43.380000,4261,43,380000000,firefly/imugt_link,1.54188599242e-08,-5.02910202627e-09,0.760353538963,0.649509427019,"(-1.0, -1.0, -1.0, -1.0, -1.0, -1.0, -1.0, -1.0, -1.0)",-0.000458428338281,-0.000122209377672,-0.00025588416076,"(0.0, 0.0, 0.0, 0.0, 0.0, 0.0, 0.0, 0.0, 0.0)",1.45222928202e-09,-1.84061743213e-08,9.80000020085,"(0.0, 0.0, 0.0, 0.0, 0.0, 0.0, 0.0, 0.0, 0.0)"
1969/12/31/19:00:43.400000,4262,43,390000000,firefly/imugt_link,1.48902303862e-08,-5.52649705282e-09,0.760353538981,0.649509426998,"(-1.0, -1.0, -1.0, -1.0, -1.0, -1.0, -1.0, -1.0, -1.0)",-0.000465492600557,-0.000116932849481,-0.000256972072391,"(0.0, 0.0, 0.0, 0.0, 0.0, 0.0, 0.0, 0.0, 0.0)",-3.01501266871e-09,-1.9439860208e-08,9.8000002383,"(0.0, 0.0, 0.0, 0.0, 0.0, 0.0, 0.0, 0.0, 0.0)"
1969/12/31/19:00:43.400000,4263,43,400000000,firefly/imugt_link,1.41710108762e-08,-5.9150348603e-09,0.760353538998,0.649509426978,"(-1.0, -1.0, -1.0, -1.0, -1.0, -1.0, -1.0, -1.0, -1.0)",-0.000463122292264,-0.000119843902811,-0.000260660995864,"(0.0, 0.0, 0.0, 0.0, 0.0, 0.0, 0.0, 0.0, 0.0)",-7.58549180115e-09,-1.99894185868e-08,9.80000024333,"(0.0, 0.0, 0.0, 0.0, 0.0, 0.0, 0.0, 0.0, 0.0)"
1969/12/31/19:00:43.410000,4264,43,410000000,firefly/imugt_link,1.32672800148e-08,-6.17930160394e-09,0.760353539015,0.649509426958,"(-1.0, -1.0, -1.0, -1.0, -1.0, -1.0, -1.0, -1.0, -1.0)",-0.000473438624964,-0.000121690901841,-0.000260242130025,"(0.0, 0.0, 0.0, 0.0, 0.0, 0.0, 0.0, 0.0, 0.0)",-1.22177760142e-08,-2.01847335865e-08,9.80000023768,"(0.0, 0.0, 0.0, 0.0, 0.0, 0.0, 0.0, 0.0, 0.0)"
1969/12/31/19:00:43.420000,4265,43,420000000,firefly/imugt_link,1.21833911697e-08,-6.31039269633e-09,0.760353539032,0.649509426938,"(-1.0, -1.0, -1.0, -1.0, -1.0, -1.0, -1.0, -1.0, -1.0)",-0.000481300799059,-0.000118047157509,-0.00026672320054,"(0.0, 0.0, 0.0, 0.0, 0.0, 0.0, 0.0, 0.0, 0.0)",-1.68884409324e-08,-2.01355372492e-08,9.80000022984,"(0.0, 0.0, 0.0, 0.0, 0.0, 0.0, 0.0, 0.0, 0.0)"
1969/12/31/19:00:43.440000,4266,43,430000000,firefly/imugt_link,1.09687718786e-08,-6.30579647332e-09,0.760353539048,0.64950942692,"(-1.0, -1.0, -1.0, -1.0, -1.0, -1.0, -1.0, -1.0, -1.0)",-0.000487377324043,-0.000114607134319,-0.000268588743958,"(0.0, 0.0, 0.0, 0.0, 0.0, 0.0, 0.0, 0.0, 0.0)",-2.03184984415e-08,-1.89742515834e-08,9.80000010179,"(0.0, 0.0, 0.0, 0.0, 0.0, 0.0, 0.0, 0.0, 0.0)"
1969/12/31/19:00:43.440000,4267,43,440000000,firefly/imugt_link,9.65663833191e-09,-6.1642777972e-09,0.760353539062,0.649509426903,"(-1.0, -1.0, -1.0, -1.0, -1.0, -1.0, -1.0, -1.0, -1.0)",-0.000483775848778,-0.000115606114577,-0.000264208870766,"(0.0, 0.0, 0.0, 0.0, 0.0, 0.0, 0.0, 0.0, 0.0)",-2.33461135203e-08,-1.74111161495e-08,9.80000001513,"(0.0, 0.0, 0.0, 0.0, 0.0, 0.0, 0.0, 0.0, 0.0)"
1969/12/31/19:00:43.450000,4268,43,450000000,firefly/imugt_link,8.26959854936e-09,-5.88523233032e-09,0.760353539073,0.64950942689,"(-1.0, -1.0, -1.0, -1.0, -1.0, -1.0, -1.0, -1.0, -1.0)",-0.000478272674396,-0.000121091848717,-0.000266034292279,"(0.0, 0.0, 0.0, 0.0, 0.0, 0.0, 0.0, 0.0, 0.0)",-2.60619278101e-08,-1.55634886871e-08,9.79999995667,"(0.0, 0.0, 0.0, 0.0, 0.0, 0.0, 0.0, 0.0, 0.0)"
1969/12/31/19:00:43.470000,4269,43,460000000,firefly/imugt_link,6.82309443752e-09,-5.4682931912e-09,0.760353539083,0.649509426879,"(-1.0, -1.0, -1.0, -1.0, -1.0, -1.0, -1.0, -1.0, -1.0)",-0.000482331378842,-0.000121303810258,-0.000259518880775,"(0.0, 0.0, 0.0, 0.0, 0.0, 0.0, 0.0, 0.0, 0.0)",-2.8548078192e-08,-1.3523128911e-08,9.79999991732,"(0.0, 0.0, 0.0, 0.0, 0.0, 0.0, 0.0, 0.0, 0.0)"
1969/12/31/19:00:43.480000,4270,43,470000000,firefly/imugt_link,5.32738069264e-09,-4.91322729389e-09,0.760353539089,0.649509426871,"(-1.0, -1.0, -1.0, -1.0, -1.0, -1.0, -1.0, -1.0, -1.0)",-0.000486548249347,-0.000120184913714,-0.000259817206177,"(0.0, 0.0, 0.0, 0.0, 0.0, 0.0, 0.0, 0.0, 0.0)",-3.08799568335e-08,-1.13687958155e-08,9.79999989087,"(0.0, 0.0, 0.0, 0.0, 0.0, 0.0, 0.0, 0.0, 0.0)"
1969/12/31/19:00:43.480000,4271,43,480000000,firefly/imugt_link,3.78892360242e-09,-4.22000202359e-09,0.760353539093,0.649509426866,"(-1.0, -1.0, -1.0, -1.0, -1.0, -1.0, -1.0, -1.0, -1.0)",-0.000486757087777,-0.00013007919706,-0.000262891119219,"(0.0, 0.0, 0.0, 0.0, 0.0, 0.0, 0.0, 0.0, 0.0)",-3.31192400521e-08,-9.16490744054e-09,9.79999987311,"(0.0, 0.0, 0.0, 0.0, 0.0, 0.0, 0.0, 0.0, 0.0)"
1969/12/31/19:00:43.490000,4272,43,490000000,firefly/imugt_link,2.22174519774e-09,-3.43436414168e-09,0.760353539095,0.649509426864,"(-1.0, -1.0, -1.0, -1.0, -1.0, -1.0, -1.0, -1.0, -1.0)",-0.000482908670507,-0.000128160735018,-0.00026272836653,"(0.0, 0.0, 0.0, 0.0, 0.0, 0.0, 0.0, 0.0, 0.0)",-3.40448830156e-08,-7.91036843415e-09,9.79999974019,"(0.0, 0.0, 0.0, 0.0, 0.0, 0.0, 0.0, 0.0, 0.0)"
1969/12/31/19:00:43.500000,4273,43,500000000,firefly/imugt_link,6.35452134009e-10,-2.58696094736e-09,0.760353539096,0.649509426863,"(-1.0, -1.0, -1.0, -1.0, -1.0, -1.0, -1.0, -1.0, -1.0)",-0.000482639578471,-0.000138620519097,-0.000262841418487,"(0.0, 0.0, 0.0, 0.0, 0.0, 0.0, 0.0, 0.0, 0.0)",-3.45390409522e-08,-6.97056636931e-09,9.7999996511,"(0.0, 0.0, 0.0, 0.0, 0.0, 0.0, 0.0, 0.0, 0.0)"
1969/12/31/19:00:43.510000,4274,43,510000000,firefly/imugt_link,-9.63017222031e-10,-1.69817418148e-09,0.760353539096,0.649509426863,"(-1.0, -1.0, -1.0, -1.0, -1.0, -1.0, -1.0, -1.0, -1.0)",-0.00048781608447,-0.000140645389812,-0.000262281229942,"(0.0, 0.0, 0.0, 0.0, 0.0, 0.0, 0.0, 0.0, 0.0)",-3.47249087984e-08,-6.27221572682e-09,9.79999959137,"(0.0, 0.0, 0.0, 0.0, 0.0, 0.0, 0.0, 0.0, 0.0)"
1969/12/31/19:00:43.520000,4275,43,520000000,firefly/imugt_link,-2.5687649466e-09,-7.81584599534e-10,0.760353539096,0.649509426863,"(-1.0, -1.0, -1.0, -1.0, -1.0, -1.0, -1.0, -1.0, -1.0)",-0.000485854626532,-0.000142680576813,-0.000261327192619,"(0.0, 0.0, 0.0, 0.0, 0.0, 0.0, 0.0, 0.0, 0.0)",-3.47067351718e-08,-5.76659333703e-09,9.79999955134,"(0.0, 0.0, 0.0, 0.0, 0.0, 0.0, 0.0, 0.0, 0.0)"
1969/12/31/19:00:43.540000,4276,43,530000000,firefly/imugt_link,-4.17879681933e-09,1.53577041198e-10,0.760353539095,0.649509426864,"(-1.0, -1.0, -1.0, -1.0, -1.0, -1.0, -1.0, -1.0, -1.0)",-0.000488439434992,-0.0001447199081,-0.000261812219167,"(0.0, 0.0, 0.0, 0.0, 0.0, 0.0, 0.0, 0.0, 0.0)",-3.45727181227e-08,-5.42696375468e-09,9.79999952451,"(0.0, 0.0, 0.0, 0.0, 0.0, 0.0, 0.0, 0.0, 0.0)"
1969/12/31/19:00:43.540000,4277,43,540000000,firefly/imugt_link,-5.79164098637e-09,1.10090347079e-09,0.760353539094,0.649509426866,"(-1.0, -1.0, -1.0, -1.0, -1.0, -1.0, -1.0, -1.0, -1.0)",-0.000481607543261,-0.000146703780145,-0.00026260869611,"(0.0, 0.0, 0.0, 0.0, 0.0, 0.0, 0.0, 0.0, 0.0)",-3.43905572231e-08,-5.23094598894e-09,9.79999950652,"(0.0, 0.0, 0.0, 0.0, 0.0, 0.0, 0.0, 0.0, 0.0)"
1969/12/31/19:00:43.550000,4278,43,550000000,firefly/imugt_link,-7.40653300322e-09,2.0560217943e-09,0.760353539093,0.649509426867,"(-1.0, -1.0, -1.0, -1.0, -1.0, -1.0, -1.0, -1.0, -1.0)",-0.000479581255911,-0.00015295800994,-0.00026713193688,"(0.0, 0.0, 0.0, 0.0, 0.0, 0.0, 0.0, 0.0, 0.0)",-3.42043010672e-08,-5.14599702781e-09,9.79999949446,"(0.0, 0.0, 0.0, 0.0, 0.0, 0.0, 0.0, 0.0, 0.0)"
1969/12/31/19:00:43.560000,4279,43,560000000,firefly/imugt_link,-9.0226306618e-09,3.01615440289e-09,0.760353539091,0.649509426869,"(-1.0, -1.0, -1.0, -1.0, -1.0, -1.0, -1.0, -1.0, -1.0)",-0.000479763550345,-0.000153960770428,-0.000261419630448,"(0.0, 0.0, 0.0, 0.0, 0.0, 0.0, 0.0, 0.0, 0.0)",-3.4039283692e-08,-5.1327389887e-09,9.79999948638,"(0.0, 0.0, 0.0, 0.0, 0.0, 0.0, 0.0, 0.0, 0.0)"
1969/12/31/19:00:43.560000,4280,43,570000000,firefly/imugt_link,-1.0560996383e-08,3.97510275329e-09,0.760353539088,0.649509426872,"(-1.0, -1.0, -1.0, -1.0, -1.0, -1.0, -1.0, -1.0, -1.0)",-0.00047725273792,-0.000151352324048,-0.000254538808781,"(0.0, 0.0, 0.0, 0.0, 0.0, 0.0, 0.0, 0.0, 0.0)",-3.18024980626e-08,-3.56254479413e-09,9.79999968304,"(0.0, 0.0, 0.0, 0.0, 0.0, 0.0, 0.0, 0.0, 0.0)"
1969/12/31/19:00:43.580000,4281,43,580000000,firefly/imugt_link,-1.19857881828e-08,4.92977299159e-09,0.760353539083,0.649509426879,"(-1.0, -1.0, -1.0, -1.0, -1.0, -1.0, -1.0, -1.0, -1.0)",-0.000472161198857,-0.000148381410136,-0.000257339436597,"(0.0, 0.0, 0.0, 0.0, 0.0, 0.0, 0.0, 0.0, 0.0)",-2.94094275873e-08,-1.86503783423e-09,9.7999997702,"(0.0, 0.0, 0.0, 0.0, 0.0, 0.0, 0.0, 0.0, 0.0)"
1969/12/31/19:00:43.590000,4282,43,590000000,firefly/imugt_link,-1.32645023825e-08,5.80222098576e-09,0.760353539076,0.649509426887,"(-1.0, -1.0, -1.0, -1.0, -1.0, -1.0, -1.0, -1.0, -1.0)",-0.000472084313328,-0.000148967796217,-0.000261317262304,"(0.0, 0.0, 0.0, 0.0, 0.0, 0.0, 0.0, 0.0, 0.0)",-2.4835455839e-08,-1.69638959466e-09,9.80000001065,"(0.0, 0.0, 0.0, 0.0, 0.0, 0.0, 0.0, 0.0, 0.0)"
1969/12/31/19:00:43.600000,4283,43,600000000,firefly/imugt_link,-1.43830376089e-08,6.55700263683e-09,0.760353539069,0.649509426895,"(-1.0, -1.0, -1.0, -1.0, -1.0, -1.0, -1.0, -1.0, -1.0)",-0.000473290841462,-0.000157219752094,-0.000255903599409,"(0.0, 0.0, 0.0, 0.0, 0.0, 0.0, 0.0, 0.0, 0.0)",-2.00357782659e-08,-1.65990852226e-09,9.80000011815,"(0.0, 0.0, 0.0, 0.0, 0.0, 0.0, 0.0, 0.0, 0.0)"
1969/12/31/19:00:43.600000,4284,43,610000000,firefly/imugt_link,-1.5335199889e-08,7.17807220174e-09,0.760353539062,0.649509426903,"(-1.0, -1.0, -1.0, -1.0, -1.0, -1.0, -1.0, -1.0, -1.0)",-0.000471109219128,-0.00015408925799,-0.000247242158767,"(0.0, 0.0, 0.0, 0.0, 0.0, 0.0, 0.0, 0.0, 0.0)",-1.51118934207e-08,-1.71569442205e-09,9.80000016609,"(0.0, 0.0, 0.0, 0.0, 0.0, 0.0, 0.0, 0.0, 0.0)"
1969/12/31/19:00:43.620000,4285,43,620000000,firefly/imugt_link,-1.61179171429e-08,7.65836679333e-09,0.760353539054,0.649509426912,"(-1.0, -1.0, -1.0, -1.0, -1.0, -1.0, -1.0, -1.0, -1.0)",-0.000473546195292,-0.000147754101336,-0.000241482600416,"(0.0, 0.0, 0.0, 0.0, 0.0, 0.0, 0.0, 0.0, 0.0)",-1.01345536607e-08,-1.82525863541e-09,9.80000018739,"(0.0, 0.0, 0.0, 0.0, 0.0, 0.0, 0.0, 0.0, 0.0)"
1969/12/31/19:00:43.630000,4286,43,630000000,firefly/imugt_link,-1.67295068726e-08,7.99486281477e-09,0.760353539047,0.649509426921,"(-1.0, -1.0, -1.0, -1.0, -1.0, -1.0, -1.0, -1.0, -1.0)",-0.000470224111288,-0.000148132530897,-0.000238170537398,"(0.0, 0.0, 0.0, 0.0, 0.0, 0.0, 0.0, 0.0, 0.0)",-5.15576498307e-09,-1.96898785915e-09,9.8000001968,"(0.0, 0.0, 0.0, 0.0, 0.0, 0.0, 0.0, 0.0, 0.0)"
1969/12/31/19:00:43.640000,4287,43,640000000,firefly/imugt_link,-1.71692663356e-08,8.18617995421e-09,0.760353539039,0.64950942693,"(-1.0, -1.0, -1.0, -1.0, -1.0, -1.0, -1.0, -1.0, -1.0)",-0.000472328932801,-0.000152129820862,-0.000243650943066,"(0.0, 0.0, 0.0, 0.0, 0.0, 0.0, 0.0, 0.0, 0.0)",-2.14954718988e-10,-2.14449998416e-09,9.80000020092,"(0.0, 0.0, 0.0, 0.0, 0.0, 0.0, 0.0, 0.0, 0.0)"
1969/12/31/19:00:43.640000,4288,43,650000000,firefly/imugt_link,-1.74372066801e-08,8.23158874482e-09,0.760353539032,0.649509426938,"(-1.0, -1.0, -1.0, -1.0, -1.0, -1.0, -1.0, -1.0, -1.0)",-0.000467740936737,-0.000153010281164,-0.000243181610827,"(0.0, 0.0, 0.0, 0.0, 0.0, 0.0, 0.0, 0.0, 0.0)",4.662143939e-09,-2.35032202407e-09,9.80000020269,"(0.0, 0.0, 0.0, 0.0, 0.0, 0.0, 0.0, 0.0, 0.0)"
1969/12/31/19:00:43.660000,4289,43,660000000,firefly/imugt_link,-1.75335668977e-08,8.13075762135e-09,0.760353539024,0.649509426947,"(-1.0, -1.0, -1.0, -1.0, -1.0, -1.0, -1.0, -1.0, -1.0)",-0.000463252857285,-0.000153557302451,-0.000241021898034,"(0.0, 0.0, 0.0, 0.0, 0.0, 0.0, 0.0, 0.0, 0.0)",9.46507644413e-09,-2.57558155016e-09,9.80000020344,"(0.0, 0.0, 0.0, 0.0, 0.0, 0.0, 0.0, 0.0, 0.0)"
1969/12/31/19:00:43.660000,4290,43,670000000,firefly/imugt_link,-1.7458415402e-08,7.88368012181e-09,0.760353539017,0.649509426956,"(-1.0, -1.0, -1.0, -1.0, -1.0, -1.0, -1.0, -1.0, -1.0)",-0.000463486056713,-0.000153283111734,-0.000240511138303,"(0.0, 0.0, 0.0, 0.0, 0.0, 0.0, 0.0, 0.0, 0.0)",1.4195119762e-08,-2.80543856975e-09,9.80000020375,"(0.0, 0.0, 0.0, 0.0, 0.0, 0.0, 0.0, 0.0, 0.0)"
1969/12/31/19:00:43.660000,4291,43,680000000,firefly/imugt_link,-1.72116656115e-08,7.49048590914e-09,0.76035353901,0.649509426964,"(-1.0, -1.0, -1.0, -1.0, -1.0, -1.0, -1.0, -1.0, -1.0)",-0.000451959895171,-0.000149363811631,-0.000239425611789,"(0.0, 0.0, 0.0, 0.0, 0.0, 0.0, 0.0, 0.0, 0.0)",1.88580231025e-08,-3.03401070828e-09,9.80000020386,"(0.0, 0.0, 0.0, 0.0, 0.0, 0.0, 0.0, 0.0, 0.0)"
1969/12/31/19:00:43.700000,4292,43,690000000,firefly/imugt_link,-1.67933588012e-08,6.95122104319e-09,0.760353539002,0.649509426973,"(-1.0, -1.0, -1.0, -1.0, -1.0, -1.0, -1.0, -1.0, -1.0)",-0.000455836110942,-0.000150113772493,-0.00024441798585,"(0.0, 0.0, 0.0, 0.0, 0.0, 0.0, 0.0, 0.0, 0.0)",2.34594652875e-08,-3.2661748793e-09,9.8000002039,"(0.0, 0.0, 0.0, 0.0, 0.0, 0.0, 0.0, 0.0, 0.0)"
1969/12/31/19:00:43.700000,4293,43,700000000,firefly/imugt_link,-1.62037696608e-08,6.26582790798e-09,0.760353538995,0.649509426982,"(-1.0, -1.0, -1.0, -1.0, -1.0, -1.0, -1.0, -1.0, -1.0)",-0.000450044474164,-0.000154410001594,-0.000247977965065,"(0.0, 0.0, 0.0, 0.0, 0.0, 0.0, 0.0, 0.0, 0.0)",2.8006220036e-08,-3.50634255985e-09,9.80000020391,"(0.0, 0.0, 0.0, 0.0, 0.0, 0.0, 0.0, 0.0, 0.0)"
1969/12/31/19:00:43.710000,4294,43,710000000,firefly/imugt_link,-1.5443159273e-08,5.43433784228e-09,0.760353538987,0.649509426991,"(-1.0, -1.0, -1.0, -1.0, -1.0, -1.0, -1.0, -1.0, -1.0)",-0.000455779990999,-0.000148248568534,-0.000249030980469,"(0.0, 0.0, 0.0, 0.0, 0.0, 0.0, 0.0, 0.0, 0.0)",3.2509533852e-08,-3.74821919648e-09,9.8000002039,"(0.0, 0.0, 0.0, 0.0, 0.0, 0.0, 0.0, 0.0, 0.0)"
1969/12/31/19:00:43.720000,4295,43,720000000,firefly/imugt_link,-1.45214634185e-08,4.50260768692e-09,0.760353538979,0.649509427,"(-1.0, -1.0, -1.0, -1.0, -1.0, -1.0, -1.0, -1.0, -1.0)",-0.000455328273053,-0.000145122776182,-0.000249560227838,"(0.0, 0.0, 0.0, 0.0, 0.0, 0.0, 0.0, 0.0, 0.0)",3.57213717528e-08,-3.02244027918e-09,9.80000008291,"(0.0, 0.0, 0.0, 0.0, 0.0, 0.0, 0.0, 0.0, 0.0)"
1969/12/31/19:00:43.730000,4296,43,730000000,firefly/imugt_link,-1.34917310373e-08,3.5042267204e-09,0.76035353897,0.649509427011,"(-1.0, -1.0, -1.0, -1.0, -1.0, -1.0, -1.0, -1.0, -1.0)",-0.00045605045375,-0.000147735685564,-0.000254641460955,"(0.0, 0.0, 0.0, 0.0, 0.0, 0.0, 0.0, 0.0, 0.0)",3.72491315839e-08,-2.93369319942e-09,9.79999988083,"(0.0, 0.0, 0.0, 0.0, 0.0, 0.0, 0.0, 0.0, 0.0)"
1969/12/31/19:00:43.740000,4297,43,740000000,firefly/imugt_link,-1.23897228016e-08,2.46155054773e-09,0.76035353896,0.649509427022,"(-1.0, -1.0, -1.0, -1.0, -1.0, -1.0, -1.0, -1.0, -1.0)",-0.000449075603111,-0.000150332691566,-0.000251305810238,"(0.0, 0.0, 0.0, 0.0, 0.0, 0.0, 0.0, 0.0, 0.0)",3.80600748911e-08,-2.92579652397e-09,9.79999974537,"(0.0, 0.0, 0.0, 0.0, 0.0, 0.0, 0.0, 0.0, 0.0)"
1969/12/31/19:00:43.750000,4298,43,750000000,firefly/imugt_link,-1.12397940375e-08,1.38931940834e-09,0.760353538951,0.649509427034,"(-1.0, -1.0, -1.0, -1.0, -1.0, -1.0, -1.0, -1.0, -1.0)",-0.000444450067562,-0.00015231580387,-0.000244023365261,"(0.0, 0.0, 0.0, 0.0, 0.0, 0.0, 0.0, 0.0, 0.0)",3.83467920041e-08,-2.99295717228e-09,9.79999965457,"(0.0, 0.0, 0.0, 0.0, 0.0, 0.0, 0.0, 0.0, 0.0)"
1969/12/31/19:00:43.760000,4299,43,760000000,firefly/imugt_link,-1.00583946254e-08,2.97374664857e-10,0.760353538941,0.649509427045,"(-1.0, -1.0, -1.0, -1.0, -1.0, -1.0, -1.0, -1.0, -1.0)",-0.000447563283245,-0.000151934852308,-0.00024812964462,"(0.0, 0.0, 0.0, 0.0, 0.0, 0.0, 0.0, 0.0, 0.0)",3.82662728319e-08,-3.11567265051e-09,9.7999995937,"(0.0, 0.0, 0.0, 0.0, 0.0, 0.0, 0.0, 0.0, 0.0)"
1969/12/31/19:00:43.780000,4300,43,770000000,firefly/imugt_link,-8.85625420687e-09,-8.07458561e-10,0.760353538931,0.649509427057,"(-1.0, -1.0, -1.0, -1.0, -1.0, -1.0, -1.0, -1.0, -1.0)",-0.000446817074591,-0.000156793940261,-0.00025044204553,"(0.0, 0.0, 0.0, 0.0, 0.0, 0.0, 0.0, 0.0, 0.0)",3.79455766086e-08,-3.26679299326e-09,9.7999995529,"(0.0, 0.0, 0.0, 0.0, 0.0, 0.0, 0.0, 0.0, 0.0)"
1969/12/31/19:00:43.780000,4301,43,780000000,firefly/imugt_link,-7.6401573976e-09,-1.9203477384e-09,0.76035353892,0.649509427069,"(-1.0, -1.0, -1.0, -1.0, -1.0, -1.0, -1.0, -1.0, -1.0)",-0.000448425168289,-0.000157959650995,-0.000248387529242,"(0.0, 0.0, 0.0, 0.0, 0.0, 0.0, 0.0, 0.0, 0.0)",3.74827185441e-08,-3.42890442788e-09,9.79999952555,"(0.0, 0.0, 0.0, 0.0, 0.0, 0.0, 0.0, 0.0, 0.0)"
1969/12/31/19:00:43.790000,4302,43,790000000,firefly/imugt_link,-6.41457545935e-09,-3.03804766601e-09,0.76035353891,0.649509427081,"(-1.0, -1.0, -1.0, -1.0, -1.0, -1.0, -1.0, -1.0, -1.0)",-0.000449232966422,-0.000161949074295,-0.000247610172543,"(0.0, 0.0, 0.0, 0.0, 0.0, 0.0, 0.0, 0.0, 0.0)",3.69480828556e-08,-3.60374331781e-09,9.79999950722,"(0.0, 0.0, 0.0, 0.0, 0.0, 0.0, 0.0, 0.0, 0.0)"
1969/12/31/19:00:43.800000,4303,43,800000000,firefly/imugt_link,-5.18285025585e-09,-4.15864455419e-09,0.7603535389,0.649509427093,"(-1.0, -1.0, -1.0, -1.0, -1.0, -1.0, -1.0, -1.0, -1.0)",-0.000447444782127,-0.000156809096599,-0.00025405715855,"(0.0, 0.0, 0.0, 0.0, 0.0, 0.0, 0.0, 0.0, 0.0)",3.63903935026e-08,-3.8027012504e-09,9.79999949493,"(0.0, 0.0, 0.0, 0.0, 0.0, 0.0, 0.0, 0.0, 0.0)"
1969/12/31/19:00:43.810000,4304,43,810000000,firefly/imugt_link,-3.9643015113e-09,-5.20501478834e-09,0.760353538888,0.649509427107,"(-1.0, -1.0, -1.0, -1.0, -1.0, -1.0, -1.0, -1.0, -1.0)",-0.000450327047521,-0.000159706746362,-0.000262000020687,"(0.0, 0.0, 0.0, 0.0, 0.0, 0.0, 0.0, 0.0, 0.0)",3.37359439727e-08,-2.43094071292e-09,9.79999968877,"(0.0, 0.0, 0.0, 0.0, 0.0, 0.0, 0.0, 0.0, 0.0)"
1969/12/31/19:00:43.820000,4305,43,820000000,firefly/imugt_link,-2.76818645388e-09,-6.14223537629e-09,0.760353538874,0.649509427123,"(-1.0, -1.0, -1.0, -1.0, -1.0, -1.0, -1.0, -1.0, -1.0)",-0.000453481968468,-0.000158008643914,-0.000262197595969,"(0.0, 0.0, 0.0, 0.0, 0.0, 0.0, 0.0, 0.0, 0.0)",3.09086168222e-08,-9.07363377286e-10,9.79999977405,"(0.0, 0.0, 0.0, 0.0, 0.0, 0.0, 0.0, 0.0, 0.0)"
1969/12/31/19:00:43.830000,4306,43,830000000,firefly/imugt_link,-1.59863379887e-09,-6.95418366504e-09,0.760353538857,0.649509427143,"(-1.0, -1.0, -1.0, -1.0, -1.0, -1.0, -1.0, -1.0, -1.0)",-0.000444366169193,-0.000157229239841,-0.0002586596231,"(0.0, 0.0, 0.0, 0.0, 0.0, 0.0, 0.0, 0.0, 0.0)",2.79978380185e-08,7.38498391406e-10,9.79999981114,"(0.0, 0.0, 0.0, 0.0, 0.0, 0.0, 0.0, 0.0, 0.0)"
1969/12/31/19:00:43.840000,4307,43,840000000,firefly/imugt_link,-4.57297628122e-10,-7.6333286799e-09,0.760353538837,0.649509427166,"(-1.0, -1.0, -1.0, -1.0, -1.0, -1.0, -1.0, -1.0, -1.0)",-0.000442416530215,-0.000155211948151,-0.000260810954412,"(0.0, 0.0, 0.0, 0.0, 0.0, 0.0, 0.0, 0.0, 0.0)",2.50697152245e-08,2.47187545624e-09,9.799999827,"(0.0, 0.0, 0.0, 0.0, 0.0, 0.0, 0.0, 0.0, 0.0)"
