time,.header.seq,.header.stamp.secs,.header.stamp.nsecs,.header.frame_id,.pose.pose.position.x,.pose.pose.position.y,.pose.pose.position.z,.pose.pose.orientation.x,.pose.pose.orientation.y,.pose.pose.orientation.z,.pose.pose.orientation.w,.pose.covariance
1969/12/31/19:21:15.005000,246866,1275,0,world,9.9999999265,7.21598591437e-08,4.04004605304,1.0071338065e-07,-3.55445241699e-08,-0.757095602088,-0.653304101701,"(0.0, 0.0, 0.0, 0.0, 0.0, 0.0, 0.0, 0.0, 0.0, 0.0, 0.0, 0.0, 0.0, 0.0, 0.0, 0.0, 0.0, 0.0, 0.0, 0.0, 0.0, 0.0, 0.0, 0.0, 0.0, 0.0, 0.0, 0.0, 0.0, 0.0, 0.0, 0.0, 0.0, 0.0, 0.0, 0.0)"
1969/12/31/19:21:15.010000,246867,1275,5000000,world,9.99999992435,7.48821462761e-08,4.04004437863,9.72680967757e-08,-3.4616301632e-08,-0.757116281881,-0.653280135708,"(0.0, 0.0, 0.0, 0.0, 0.0, 0.0, 0.0, 0.0, 0.0, 0.0, 0.0, 0.0, 0.0, 0.0, 0.0, 0.0, 0.0, 0.0, 0.0, 0.0, 0.0, 0.0, 0.0, 0.0, 0.0, 0.0, 0.0, 0.0, 0.0, 0.0, 0.0, 0.0, 0.0, 0.0, 0.0, 0.0)"
1969/12/31/19:21:15.015000,246868,1275,10000000,world,9.99999992217,7.76467444789e-08,4.04004270519,9.34440527448e-08,-3.36369924322e-08,-0.757136884314,-0.653256257843,"(0.0, 0.0, 0.0, 0.0, 0.0, 0.0, 0.0, 0.0, 0.0, 0.0, 0.0, 0.0, 0.0, 0.0, 0.0, 0.0, 0.0, 0.0, 0.0, 0.0, 0.0, 0.0, 0.0, 0.0, 0.0, 0.0, 0.0, 0.0, 0.0, 0.0, 0.0, 0.0, 0.0, 0.0, 0.0, 0.0)"
1969/12/31/19:21:15.020000,246869,1275,15000000,world,9.99999991997,8.04520303955e-08,4.04004103294,8.92561692497e-08,-3.26126777611e-08,-0.757157409302,-0.653232468221,"(0.0, 0.0, 0.0, 0.0, 0.0, 0.0, 0.0, 0.0, 0.0, 0.0, 0.0, 0.0, 0.0, 0.0, 0.0, 0.0, 0.0, 0.0, 0.0, 0.0, 0.0, 0.0, 0.0, 0.0, 0.0, 0.0, 0.0, 0.0, 0.0, 0.0, 0.0, 0.0, 0.0, 0.0, 0.0, 0.0)"
1969/12/31/19:21:15.020000,246870,1275,20000000,world,9.99999991775,8.32962526938e-08,4.04003936189,8.47159243638e-08,-3.1547488497e-08,-0.757177856801,-0.653208766912,"(0.0, 0.0, 0.0, 0.0, 0.0, 0.0, 0.0, 0.0, 0.0, 0.0, 0.0, 0.0, 0.0, 0.0, 0.0, 0.0, 0.0, 0.0, 0.0, 0.0, 0.0, 0.0, 0.0, 0.0, 0.0, 0.0, 0.0, 0.0, 0.0, 0.0, 0.0, 0.0, 0.0, 0.0, 0.0, 0.0)"
1969/12/31/19:21:15.025000,246871,1275,25000000,world,9.99999991551,8.61775364784e-08,4.040037692,7.98321338571e-08,-3.04440532433e-08,-0.757198226789,-0.653185153956,"(0.0, 0.0, 0.0, 0.0, 0.0, 0.0, 0.0, 0.0, 0.0, 0.0, 0.0, 0.0, 0.0, 0.0, 0.0, 0.0, 0.0, 0.0, 0.0, 0.0, 0.0, 0.0, 0.0, 0.0, 0.0, 0.0, 0.0, 0.0, 0.0, 0.0, 0.0, 0.0, 0.0, 0.0, 0.0, 0.0)"
1969/12/31/19:21:15.030000,246872,1275,30000000,world,9.99999991325,8.909386295e-08,4.04003602353,7.46346684229e-08,-2.93055591484e-08,-0.757218519187,-0.653161629461,"(0.0, 0.0, 0.0, 0.0, 0.0, 0.0, 0.0, 0.0, 0.0, 0.0, 0.0, 0.0, 0.0, 0.0, 0.0, 0.0, 0.0, 0.0, 0.0, 0.0, 0.0, 0.0, 0.0, 0.0, 0.0, 0.0, 0.0, 0.0, 0.0, 0.0, 0.0, 0.0, 0.0, 0.0, 0.0, 0.0)"
1969/12/31/19:21:15.035000,246873,1275,35000000,world,9.99999991097,9.2043103206e-08,4.04003435666,6.91500249655e-08,-2.81349109121e-08,-0.75723873393,-0.653138193521,"(0.0, 0.0, 0.0, 0.0, 0.0, 0.0, 0.0, 0.0, 0.0, 0.0, 0.0, 0.0, 0.0, 0.0, 0.0, 0.0, 0.0, 0.0, 0.0, 0.0, 0.0, 0.0, 0.0, 0.0, 0.0, 0.0, 0.0, 0.0, 0.0, 0.0, 0.0, 0.0, 0.0, 0.0, 0.0, 0.0)"
1969/12/31/19:21:15.035000,246874,1275,40000000,world,9.99999990868,9.50230287335e-08,4.04003269156,6.34121847807e-08,-2.69246860597e-08,-0.757258870959,-0.653114846221,"(0.0, 0.0, 0.0, 0.0, 0.0, 0.0, 0.0, 0.0, 0.0, 0.0, 0.0, 0.0, 0.0, 0.0, 0.0, 0.0, 0.0, 0.0, 0.0, 0.0, 0.0, 0.0, 0.0, 0.0, 0.0, 0.0, 0.0, 0.0, 0.0, 0.0, 0.0, 0.0, 0.0, 0.0, 0.0, 0.0)"
1969/12/31/19:21:15.050000,246875,1275,45000000,world,9.99999990637,9.80313062827e-08,4.04003102856,5.74475936768e-08,-2.56827228195e-08,-0.757278930182,-0.653091587683,"(0.0, 0.0, 0.0, 0.0, 0.0, 0.0, 0.0, 0.0, 0.0, 0.0, 0.0, 0.0, 0.0, 0.0, 0.0, 0.0, 0.0, 0.0, 0.0, 0.0, 0.0, 0.0, 0.0, 0.0, 0.0, 0.0, 0.0, 0.0, 0.0, 0.0, 0.0, 0.0, 0.0, 0.0, 0.0, 0.0)"
1969/12/31/19:21:15.060000,246876,1275,50000000,world,9.99999990406,1.0106552674e-07,4.04002936779,5.12750384618e-08,-2.44157498443e-08,-0.757298911547,-0.653068417986,"(0.0, 0.0, 0.0, 0.0, 0.0, 0.0, 0.0, 0.0, 0.0, 0.0, 0.0, 0.0, 0.0, 0.0, 0.0, 0.0, 0.0, 0.0, 0.0, 0.0, 0.0, 0.0, 0.0, 0.0, 0.0, 0.0, 0.0, 0.0, 0.0, 0.0, 0.0, 0.0, 0.0, 0.0, 0.0, 0.0)"
1969/12/31/19:21:15.060000,246877,1275,55000000,world,9.99999990173,1.04123211566e-07,4.04002770923,4.49082698421e-08,-2.31295062463e-08,-0.757318815029,-0.653045337173,"(0.0, 0.0, 0.0, 0.0, 0.0, 0.0, 0.0, 0.0, 0.0, 0.0, 0.0, 0.0, 0.0, 0.0, 0.0, 0.0, 0.0, 0.0, 0.0, 0.0, 0.0, 0.0, 0.0, 0.0, 0.0, 0.0, 0.0, 0.0, 0.0, 0.0, 0.0, 0.0, 0.0, 0.0, 0.0, 0.0)"
1969/12/31/19:21:15.060000,246878,1275,60000000,world,9.9999998994,1.0720181819e-07,4.04002605281,3.83579072356e-08,-2.18285304897e-08,-0.757338640626,-0.653022345265,"(0.0, 0.0, 0.0, 0.0, 0.0, 0.0, 0.0, 0.0, 0.0, 0.0, 0.0, 0.0, 0.0, 0.0, 0.0, 0.0, 0.0, 0.0, 0.0, 0.0, 0.0, 0.0, 0.0, 0.0, 0.0, 0.0, 0.0, 0.0, 0.0, 0.0, 0.0, 0.0, 0.0, 0.0, 0.0, 0.0)"
1969/12/31/19:21:15.065000,246879,1275,65000000,world,9.99999989706,1.1029874458e-07,4.04002439841,3.16327071082e-08,-2.05158633416e-08,-0.757358388347,-0.652999442266,"(0.0, 0.0, 0.0, 0.0, 0.0, 0.0, 0.0, 0.0, 0.0, 0.0, 0.0, 0.0, 0.0, 0.0, 0.0, 0.0, 0.0, 0.0, 0.0, 0.0, 0.0, 0.0, 0.0, 0.0, 0.0, 0.0, 0.0, 0.0, 0.0, 0.0, 0.0, 0.0, 0.0, 0.0, 0.0, 0.0)"
1969/12/31/19:21:15.070000,246880,1275,70000000,world,9.99999989471,1.13411333006e-07,4.0400227459,2.47402606072e-08,-1.9192883288e-08,-0.757378058215,-0.652976628168,"(0.0, 0.0, 0.0, 0.0, 0.0, 0.0, 0.0, 0.0, 0.0, 0.0, 0.0, 0.0, 0.0, 0.0, 0.0, 0.0, 0.0, 0.0, 0.0, 0.0, 0.0, 0.0, 0.0, 0.0, 0.0, 0.0, 0.0, 0.0, 0.0, 0.0, 0.0, 0.0, 0.0, 0.0, 0.0, 0.0)"
1969/12/31/19:21:15.080000,246881,1275,75000000,world,9.99999989237,1.16536851134e-07,4.04002109556,1.7720922716e-08,-1.78502496618e-08,-0.757397650186,-0.652953903038,"(0.0, 0.0, 0.0, 0.0, 0.0, 0.0, 0.0, 0.0, 0.0, 0.0, 0.0, 0.0, 0.0, 0.0, 0.0, 0.0, 0.0, 0.0, 0.0, 0.0, 0.0, 0.0, 0.0, 0.0, 0.0, 0.0, 0.0, 0.0, 0.0, 0.0, 0.0, 0.0, 0.0, 0.0, 0.0, 0.0)"
1969/12/31/19:21:15.080000,246882,1275,80000000,world,9.99999989002,1.1967252736e-07,4.0400194475,1.06047645413e-08,-1.64806096026e-08,-0.757417164244,-0.65293126691,"(0.0, 0.0, 0.0, 0.0, 0.0, 0.0, 0.0, 0.0, 0.0, 0.0, 0.0, 0.0, 0.0, 0.0, 0.0, 0.0, 0.0, 0.0, 0.0, 0.0, 0.0, 0.0, 0.0, 0.0, 0.0, 0.0, 0.0, 0.0, 0.0, 0.0, 0.0, 0.0, 0.0, 0.0, 0.0, 0.0)"
1969/12/31/19:21:15.095000,246883,1275,85000000,world,9.99999988768,1.22815556185e-07,4.04001780173,3.41395766961e-09,-1.50782710906e-08,-0.75743660039,-0.652908719799,"(0.0, 0.0, 0.0, 0.0, 0.0, 0.0, 0.0, 0.0, 0.0, 0.0, 0.0, 0.0, 0.0, 0.0, 0.0, 0.0, 0.0, 0.0, 0.0, 0.0, 0.0, 0.0, 0.0, 0.0, 0.0, 0.0, 0.0, 0.0, 0.0, 0.0, 0.0, 0.0, 0.0, 0.0, 0.0, 0.0)"
1969/12/31/19:21:15.095000,246885,1275,95000000,world,9.99999988301,1.29112300853e-07,4.04001451692,-1.11327819885e-08,-1.21616150713e-08,-0.757475239022,-0.652863892606,"(0.0, 0.0, 0.0, 0.0, 0.0, 0.0, 0.0, 0.0, 0.0, 0.0, 0.0, 0.0, 0.0, 0.0, 0.0, 0.0, 0.0, 0.0, 0.0, 0.0, 0.0, 0.0, 0.0, 0.0, 0.0, 0.0, 0.0, 0.0, 0.0, 0.0, 0.0, 0.0, 0.0, 0.0, 0.0, 0.0)"
1969/12/31/19:21:15.100000,246886,1275,100000000,world,9.9999998807,1.32260263626e-07,4.04001287774,-1.8470311767e-08,-1.06450987699e-08,-0.757494441567,-0.652841612488,"(0.0, 0.0, 0.0, 0.0, 0.0, 0.0, 0.0, 0.0, 0.0, 0.0, 0.0, 0.0, 0.0, 0.0, 0.0, 0.0, 0.0, 0.0, 0.0, 0.0, 0.0, 0.0, 0.0, 0.0, 0.0, 0.0, 0.0, 0.0, 0.0, 0.0, 0.0, 0.0, 0.0, 0.0, 0.0, 0.0)"
1969/12/31/19:21:15.105000,246887,1275,105000000,world,9.99999987839,1.35404076319e-07,4.04001124061,-2.58432320327e-08,-9.09113754566e-09,-0.757513566313,-0.652819421319,"(0.0, 0.0, 0.0, 0.0, 0.0, 0.0, 0.0, 0.0, 0.0, 0.0, 0.0, 0.0, 0.0, 0.0, 0.0, 0.0, 0.0, 0.0, 0.0, 0.0, 0.0, 0.0, 0.0, 0.0, 0.0, 0.0, 0.0, 0.0, 0.0, 0.0, 0.0, 0.0, 0.0, 0.0, 0.0, 0.0)"
1969/12/31/19:21:15.115000,246888,1275,110000000,world,9.99999987609,1.38540763107e-07,4.04000960594,-3.32210818122e-08,-7.5150655245e-09,-0.75753261322,-0.652797319164,"(0.0, 0.0, 0.0, 0.0, 0.0, 0.0, 0.0, 0.0, 0.0, 0.0, 0.0, 0.0, 0.0, 0.0, 0.0, 0.0, 0.0, 0.0, 0.0, 0.0, 0.0, 0.0, 0.0, 0.0, 0.0, 0.0, 0.0, 0.0, 0.0, 0.0, 0.0, 0.0, 0.0, 0.0, 0.0, 0.0)"
1969/12/31/19:21:15.115000,246889,1275,115000000,world,9.99999987382,1.41667350305e-07,4.04000797393,-4.05807630872e-08,-5.92812407836e-09,-0.757551582274,-0.652775306054,"(0.0, 0.0, 0.0, 0.0, 0.0, 0.0, 0.0, 0.0, 0.0, 0.0, 0.0, 0.0, 0.0, 0.0, 0.0, 0.0, 0.0, 0.0, 0.0, 0.0, 0.0, 0.0, 0.0, 0.0, 0.0, 0.0, 0.0, 0.0, 0.0, 0.0, 0.0, 0.0, 0.0, 0.0, 0.0, 0.0)"
1969/12/31/19:21:15.125000,246890,1275,120000000,world,9.99999987156,1.44780863606e-07,4.04000634481,-4.78923537582e-08,-4.33874265833e-09,-0.75757047346,-0.652753382023,"(0.0, 0.0, 0.0, 0.0, 0.0, 0.0, 0.0, 0.0, 0.0, 0.0, 0.0, 0.0, 0.0, 0.0, 0.0, 0.0, 0.0, 0.0, 0.0, 0.0, 0.0, 0.0, 0.0, 0.0, 0.0, 0.0, 0.0, 0.0, 0.0, 0.0, 0.0, 0.0, 0.0, 0.0, 0.0, 0.0)"
1969/12/31/19:21:15.130000,246891,1275,125000000,world,9.99999986932,1.4787835439e-07,4.0400047187,-5.51330505617e-08,-2.75190540074e-09,-0.757589286779,-0.652731547083,"(0.0, 0.0, 0.0, 0.0, 0.0, 0.0, 0.0, 0.0, 0.0, 0.0, 0.0, 0.0, 0.0, 0.0, 0.0, 0.0, 0.0, 0.0, 0.0, 0.0, 0.0, 0.0, 0.0, 0.0, 0.0, 0.0, 0.0, 0.0, 0.0, 0.0, 0.0, 0.0, 0.0, 0.0, 0.0, 0.0)"
1969/12/31/19:21:15.130000,246892,1275,130000000,world,9.99999986711,1.50956906783e-07,4.04000309561,-6.22851295998e-08,-1.16973550701e-09,-0.75760802225,-0.652709801231,"(0.0, 0.0, 0.0, 0.0, 0.0, 0.0, 0.0, 0.0, 0.0, 0.0, 0.0, 0.0, 0.0, 0.0, 0.0, 0.0, 0.0, 0.0, 0.0, 0.0, 0.0, 0.0, 0.0, 0.0, 0.0, 0.0, 0.0, 0.0, 0.0, 0.0, 0.0, 0.0, 0.0, 0.0, 0.0, 0.0)"
1969/12/31/19:21:15.135000,246893,1275,135000000,world,9.99999986492,1.54013642601e-07,4.04000147554,-6.93348420309e-08,4.07710088646e-10,-0.757626679899,-0.652688144449,"(0.0, 0.0, 0.0, 0.0, 0.0, 0.0, 0.0, 0.0, 0.0, 0.0, 0.0, 0.0, 0.0, 0.0, 0.0, 0.0, 0.0, 0.0, 0.0, 0.0, 0.0, 0.0, 0.0, 0.0, 0.0, 0.0, 0.0, 0.0, 0.0, 0.0, 0.0, 0.0, 0.0, 0.0, 0.0, 0.0)"
1969/12/31/19:21:15.140000,246894,1275,140000000,world,9.99999986276,1.57045699816e-07,4.0399998588,-7.6247378769e-08,1.97998091122e-09,-0.757645259715,-0.652666576768,"(0.0, 0.0, 0.0, 0.0, 0.0, 0.0, 0.0, 0.0, 0.0, 0.0, 0.0, 0.0, 0.0, 0.0, 0.0, 0.0, 0.0, 0.0, 0.0, 0.0, 0.0, 0.0, 0.0, 0.0, 0.0, 0.0, 0.0, 0.0, 0.0, 0.0, 0.0, 0.0, 0.0, 0.0, 0.0, 0.0)"
1969/12/31/19:21:15.145000,246895,1275,145000000,world,9.99999986063,1.60050272402e-07,4.03999824555,-8.29971674755e-08,3.54711947048e-09,-0.757663761705,-0.652645098195,"(0.0, 0.0, 0.0, 0.0, 0.0, 0.0, 0.0, 0.0, 0.0, 0.0, 0.0, 0.0, 0.0, 0.0, 0.0, 0.0, 0.0, 0.0, 0.0, 0.0, 0.0, 0.0, 0.0, 0.0, 0.0, 0.0, 0.0, 0.0, 0.0, 0.0, 0.0, 0.0, 0.0, 0.0, 0.0, 0.0)"
1969/12/31/19:21:15.150000,246896,1275,150000000,world,9.99999985852,1.63024615883e-07,4.03999663587,-8.95657693893e-08,5.10874000005e-09,-0.75768218589,-0.652623708722,"(0.0, 0.0, 0.0, 0.0, 0.0, 0.0, 0.0, 0.0, 0.0, 0.0, 0.0, 0.0, 0.0, 0.0, 0.0, 0.0, 0.0, 0.0, 0.0, 0.0, 0.0, 0.0, 0.0, 0.0, 0.0, 0.0, 0.0, 0.0, 0.0, 0.0, 0.0, 0.0, 0.0, 0.0, 0.0, 0.0)"
1969/12/31/19:21:15.155000,246897,1275,155000000,world,9.99999985646,1.65966051409e-07,4.03999502979,-9.5940092696e-08,6.66352261746e-09,-0.757700532298,-0.652602408328,"(0.0, 0.0, 0.0, 0.0, 0.0, 0.0, 0.0, 0.0, 0.0, 0.0, 0.0, 0.0, 0.0, 0.0, 0.0, 0.0, 0.0, 0.0, 0.0, 0.0, 0.0, 0.0, 0.0, 0.0, 0.0, 0.0, 0.0, 0.0, 0.0, 0.0, 0.0, 0.0, 0.0, 0.0, 0.0, 0.0)"
1969/12/31/19:21:15.160000,246898,1275,160000000,world,9.99999985443,1.68871980092e-07,4.03999342747,-1.02102952554e-07,8.22614890664e-09,-0.75771880095,-0.652581197007,"(0.0, 0.0, 0.0, 0.0, 0.0, 0.0, 0.0, 0.0, 0.0, 0.0, 0.0, 0.0, 0.0, 0.0, 0.0, 0.0, 0.0, 0.0, 0.0, 0.0, 0.0, 0.0, 0.0, 0.0, 0.0, 0.0, 0.0, 0.0, 0.0, 0.0, 0.0, 0.0, 0.0, 0.0, 0.0, 0.0)"
1969/12/31/19:21:15.165000,246899,1275,165000000,world,9.99999985243,1.71739846534e-07,4.03999182907,-1.08038533125e-07,9.78833150048e-09,-0.757736991875,-0.652560074739,"(0.0, 0.0, 0.0, 0.0, 0.0, 0.0, 0.0, 0.0, 0.0, 0.0, 0.0, 0.0, 0.0, 0.0, 0.0, 0.0, 0.0, 0.0, 0.0, 0.0, 0.0, 0.0, 0.0, 0.0, 0.0, 0.0, 0.0, 0.0, 0.0, 0.0, 0.0, 0.0, 0.0, 0.0, 0.0, 0.0)"
1969/12/31/19:21:15.170000,246900,1275,170000000,world,9.99999985047,1.7456717516e-07,4.03999023469,-1.1373515636e-07,1.13434392973e-08,-0.757755105107,-0.652539041502,"(0.0, 0.0, 0.0, 0.0, 0.0, 0.0, 0.0, 0.0, 0.0, 0.0, 0.0, 0.0, 0.0, 0.0, 0.0, 0.0, 0.0, 0.0, 0.0, 0.0, 0.0, 0.0, 0.0, 0.0, 0.0, 0.0, 0.0, 0.0, 0.0, 0.0, 0.0, 0.0, 0.0, 0.0, 0.0, 0.0)"
1969/12/31/19:21:15.175000,246901,1275,175000000,world,9.99999984856,1.77351575188e-07,4.0399886444,-1.1918361827e-07,1.28866587911e-08,-0.757773140686,-0.652518097262,"(0.0, 0.0, 0.0, 0.0, 0.0, 0.0, 0.0, 0.0, 0.0, 0.0, 0.0, 0.0, 0.0, 0.0, 0.0, 0.0, 0.0, 0.0, 0.0, 0.0, 0.0, 0.0, 0.0, 0.0, 0.0, 0.0, 0.0, 0.0, 0.0, 0.0, 0.0, 0.0, 0.0, 0.0, 0.0, 0.0)"
1969/12/31/19:21:15.180000,246902,1275,180000000,world,9.99999984668,1.80090744713e-07,4.03998705827,-1.24376240327e-07,1.44151073385e-08,-0.757791098658,-0.652497241982,"(0.0, 0.0, 0.0, 0.0, 0.0, 0.0, 0.0, 0.0, 0.0, 0.0, 0.0, 0.0, 0.0, 0.0, 0.0, 0.0, 0.0, 0.0, 0.0, 0.0, 0.0, 0.0, 0.0, 0.0, 0.0, 0.0, 0.0, 0.0, 0.0, 0.0, 0.0, 0.0, 0.0, 0.0, 0.0, 0.0)"
1969/12/31/19:21:15.185000,246903,1275,185000000,world,9.99999984485,1.82782473835e-07,4.03998547634,-1.29306477138e-07,1.59277119956e-08,-0.75780897907,-0.652476475622,"(0.0, 0.0, 0.0, 0.0, 0.0, 0.0, 0.0, 0.0, 0.0, 0.0, 0.0, 0.0, 0.0, 0.0, 0.0, 0.0, 0.0, 0.0, 0.0, 0.0, 0.0, 0.0, 0.0, 0.0, 0.0, 0.0, 0.0, 0.0, 0.0, 0.0, 0.0, 0.0, 0.0, 0.0, 0.0, 0.0)"
1969/12/31/19:21:15.190000,246904,1275,190000000,world,9.99999984307,1.85424646748e-07,4.03998389863,-1.33968887918e-07,1.74247992636e-08,-0.757826781973,-0.652455798138,"(0.0, 0.0, 0.0, 0.0, 0.0, 0.0, 0.0, 0.0, 0.0, 0.0, 0.0, 0.0, 0.0, 0.0, 0.0, 0.0, 0.0, 0.0, 0.0, 0.0, 0.0, 0.0, 0.0, 0.0, 0.0, 0.0, 0.0, 0.0, 0.0, 0.0, 0.0, 0.0, 0.0, 0.0, 0.0, 0.0)"
1969/12/31/19:21:15.195000,246905,1275,195000000,world,9.99999984133,1.88015242858e-07,4.03998232517,-1.38359264377e-07,1.89074648754e-08,-0.75784450742,-0.652435209484,"(0.0, 0.0, 0.0, 0.0, 0.0, 0.0, 0.0, 0.0, 0.0, 0.0, 0.0, 0.0, 0.0, 0.0, 0.0, 0.0, 0.0, 0.0, 0.0, 0.0, 0.0, 0.0, 0.0, 0.0, 0.0, 0.0, 0.0, 0.0, 0.0, 0.0, 0.0, 0.0, 0.0, 0.0, 0.0, 0.0)"
1969/12/31/19:21:15.200000,246906,1275,200000000,world,9.99999983963,1.90552335815e-07,4.03998075612,-1.4247364664e-07,2.03766881002e-08,-0.757862155478,-0.652414709594,"(0.0, 0.0, 0.0, 0.0, 0.0, 0.0, 0.0, 0.0, 0.0, 0.0, 0.0, 0.0, 0.0, 0.0, 0.0, 0.0, 0.0, 0.0, 0.0, 0.0, 0.0, 0.0, 0.0, 0.0, 0.0, 0.0, 0.0, 0.0, 0.0, 0.0, 0.0, 0.0, 0.0, 0.0, 0.0, 0.0)"
1969/12/31/19:21:15.210000,246907,1275,205000000,world,9.99999983799,1.93034095543e-07,4.03997919157,-1.46309897616e-07,2.18330332759e-08,-0.757879726213,-0.652394298408,"(0.0, 0.0, 0.0, 0.0, 0.0, 0.0, 0.0, 0.0, 0.0, 0.0, 0.0, 0.0, 0.0, 0.0, 0.0, 0.0, 0.0, 0.0, 0.0, 0.0, 0.0, 0.0, 0.0, 0.0, 0.0, 0.0, 0.0, 0.0, 0.0, 0.0, 0.0, 0.0, 0.0, 0.0, 0.0, 0.0)"
1969/12/31/19:21:15.210000,246908,1275,210000000,world,9.99999983639,1.95458787836e-07,4.03997763159,-1.49867225069e-07,2.32762857105e-08,-0.757897219686,-0.65237397587,"(0.0, 0.0, 0.0, 0.0, 0.0, 0.0, 0.0, 0.0, 0.0, 0.0, 0.0, 0.0, 0.0, 0.0, 0.0, 0.0, 0.0, 0.0, 0.0, 0.0, 0.0, 0.0, 0.0, 0.0, 0.0, 0.0, 0.0, 0.0, 0.0, 0.0, 0.0, 0.0, 0.0, 0.0, 0.0, 0.0)"
1969/12/31/19:21:15.220000,246909,1275,215000000,world,9.99999983484,1.97824774067e-07,4.03997607622,-1.53145631277e-07,2.47054237027e-08,-0.757914635956,-0.652353741925,"(0.0, 0.0, 0.0, 0.0, 0.0, 0.0, 0.0, 0.0, 0.0, 0.0, 0.0, 0.0, 0.0, 0.0, 0.0, 0.0, 0.0, 0.0, 0.0, 0.0, 0.0, 0.0, 0.0, 0.0, 0.0, 0.0, 0.0, 0.0, 0.0, 0.0, 0.0, 0.0, 0.0, 0.0, 0.0, 0.0)"
1969/12/31/19:21:15.220000,246910,1275,220000000,world,9.99999983335,2.00130511246e-07,4.03997452549,-1.56145372407e-07,2.6118886777e-08,-0.75793197508,-0.652333596522,"(0.0, 0.0, 0.0, 0.0, 0.0, 0.0, 0.0, 0.0, 0.0, 0.0, 0.0, 0.0, 0.0, 0.0, 0.0, 0.0, 0.0, 0.0, 0.0, 0.0, 0.0, 0.0, 0.0, 0.0, 0.0, 0.0, 0.0, 0.0, 0.0, 0.0, 0.0, 0.0, 0.0, 0.0, 0.0, 0.0)"
1969/12/31/19:21:15.225000,246911,1275,225000000,world,9.9999998319,2.02374552483e-07,4.03997297941,-1.58866532871e-07,2.75150193783e-08,-0.757949237114,-0.65231353961,"(0.0, 0.0, 0.0, 0.0, 0.0, 0.0, 0.0, 0.0, 0.0, 0.0, 0.0, 0.0, 0.0, 0.0, 0.0, 0.0, 0.0, 0.0, 0.0, 0.0, 0.0, 0.0, 0.0, 0.0, 0.0, 0.0, 0.0, 0.0, 0.0, 0.0, 0.0, 0.0, 0.0, 0.0, 0.0, 0.0)"
1969/12/31/19:21:15.225000,246912,1275,230000000,world,9.99999983051,2.04555544717e-07,4.03997143823,-1.61317950606e-07,2.88818767948e-08,-0.75796642215,-0.652293571096,"(0.0, 0.0, 0.0, 0.0, 0.0, 0.0, 0.0, 0.0, 0.0, 0.0, 0.0, 0.0, 0.0, 0.0, 0.0, 0.0, 0.0, 0.0, 0.0, 0.0, 0.0, 0.0, 0.0, 0.0, 0.0, 0.0, 0.0, 0.0, 0.0, 0.0, 0.0, 0.0, 0.0, 0.0, 0.0, 0.0)"
1969/12/31/19:21:15.235000,246913,1275,235000000,world,9.99999982917,2.06672234453e-07,4.03996990208,-1.63505054232e-07,3.02117140807e-08,-0.757983530266,-0.652273690904,"(0.0, 0.0, 0.0, 0.0, 0.0, 0.0, 0.0, 0.0, 0.0, 0.0, 0.0, 0.0, 0.0, 0.0, 0.0, 0.0, 0.0, 0.0, 0.0, 0.0, 0.0, 0.0, 0.0, 0.0, 0.0, 0.0, 0.0, 0.0, 0.0, 0.0, 0.0, 0.0, 0.0, 0.0, 0.0, 0.0)"
1969/12/31/19:21:15.240000,246914,1275,240000000,world,9.99999982788,2.08723468776e-07,4.03996837106,-1.65431033034e-07,3.14999042579e-08,-0.758000561535,-0.652253898963,"(0.0, 0.0, 0.0, 0.0, 0.0, 0.0, 0.0, 0.0, 0.0, 0.0, 0.0, 0.0, 0.0, 0.0, 0.0, 0.0, 0.0, 0.0, 0.0, 0.0, 0.0, 0.0, 0.0, 0.0, 0.0, 0.0, 0.0, 0.0, 0.0, 0.0, 0.0, 0.0, 0.0, 0.0, 0.0, 0.0)"
1969/12/31/19:21:15.245000,246915,1275,245000000,world,9.99999982664,2.10708202266e-07,4.03996684537,-1.67104176754e-07,3.27443973366e-08,-0.758017516052,-0.652234195177,"(0.0, 0.0, 0.0, 0.0, 0.0, 0.0, 0.0, 0.0, 0.0, 0.0, 0.0, 0.0, 0.0, 0.0, 0.0, 0.0, 0.0, 0.0, 0.0, 0.0, 0.0, 0.0, 0.0, 0.0, 0.0, 0.0, 0.0, 0.0, 0.0, 0.0, 0.0, 0.0, 0.0, 0.0, 0.0, 0.0)"
1969/12/31/19:21:15.250000,246916,1275,250000000,world,9.99999982546,2.12625479422e-07,4.03996532518,-1.6852962984e-07,3.39381262616e-08,-0.75803439391,-0.652214579451,"(0.0, 0.0, 0.0, 0.0, 0.0, 0.0, 0.0, 0.0, 0.0, 0.0, 0.0, 0.0, 0.0, 0.0, 0.0, 0.0, 0.0, 0.0, 0.0, 0.0, 0.0, 0.0, 0.0, 0.0, 0.0, 0.0, 0.0, 0.0, 0.0, 0.0, 0.0, 0.0, 0.0, 0.0, 0.0, 0.0)"
1969/12/31/19:21:15.255000,246917,1275,255000000,world,9.99999982433,2.14474444557e-07,4.03996381058,-1.6971162503e-07,3.50757126396e-08,-0.758051195193,-0.652195051704,"(0.0, 0.0, 0.0, 0.0, 0.0, 0.0, 0.0, 0.0, 0.0, 0.0, 0.0, 0.0, 0.0, 0.0, 0.0, 0.0, 0.0, 0.0, 0.0, 0.0, 0.0, 0.0, 0.0, 0.0, 0.0, 0.0, 0.0, 0.0, 0.0, 0.0, 0.0, 0.0, 0.0, 0.0, 0.0, 0.0)"
1969/12/31/19:21:15.260000,246918,1275,260000000,world,9.99999982325,2.16254341866e-07,4.03996230161,-1.70653792663e-07,3.61527419334e-08,-0.758067919973,-0.652175611862,"(0.0, 0.0, 0.0, 0.0, 0.0, 0.0, 0.0, 0.0, 0.0, 0.0, 0.0, 0.0, 0.0, 0.0, 0.0, 0.0, 0.0, 0.0, 0.0, 0.0, 0.0, 0.0, 0.0, 0.0, 0.0, 0.0, 0.0, 0.0, 0.0, 0.0, 0.0, 0.0, 0.0, 0.0, 0.0, 0.0)"
1969/12/31/19:21:15.265000,246919,1275,265000000,world,9.99999982223,2.1796451543e-07,4.03996079827,-1.71359254252e-07,3.71653182643e-08,-0.75808456832,-0.65215625986,"(0.0, 0.0, 0.0, 0.0, 0.0, 0.0, 0.0, 0.0, 0.0, 0.0, 0.0, 0.0, 0.0, 0.0, 0.0, 0.0, 0.0, 0.0, 0.0, 0.0, 0.0, 0.0, 0.0, 0.0, 0.0, 0.0, 0.0, 0.0, 0.0, 0.0, 0.0, 0.0, 0.0, 0.0, 0.0, 0.0)"
1969/12/31/19:21:15.265000,246920,1275,270000000,world,9.99999982126,2.19604409273e-07,4.03995930081,-1.71830585591e-07,3.81098929025e-08,-0.758101140347,-0.65213699558,"(0.0, 0.0, 0.0, 0.0, 0.0, 0.0, 0.0, 0.0, 0.0, 0.0, 0.0, 0.0, 0.0, 0.0, 0.0, 0.0, 0.0, 0.0, 0.0, 0.0, 0.0, 0.0, 0.0, 0.0, 0.0, 0.0, 0.0, 0.0, 0.0, 0.0, 0.0, 0.0, 0.0, 0.0, 0.0, 0.0)"
1969/12/31/19:21:15.270000,246921,1275,275000000,world,9.99999982034,2.21173567827e-07,4.03995780934,-1.72069747856e-07,3.89833039081e-08,-0.75811763615,-0.652117818924,"(0.0, 0.0, 0.0, 0.0, 0.0, 0.0, 0.0, 0.0, 0.0, 0.0, 0.0, 0.0, 0.0, 0.0, 0.0, 0.0, 0.0, 0.0, 0.0, 0.0, 0.0, 0.0, 0.0, 0.0, 0.0, 0.0, 0.0, 0.0, 0.0, 0.0, 0.0, 0.0, 0.0, 0.0, 0.0, 0.0)"
1969/12/31/19:21:15.280000,246922,1275,280000000,world,9.99999981948,2.22671669307e-07,4.03995632419,-1.72098538225e-07,3.97954654622e-08,-0.758134055869,-0.652098729742,"(0.0, 0.0, 0.0, 0.0, 0.0, 0.0, 0.0, 0.0, 0.0, 0.0, 0.0, 0.0, 0.0, 0.0, 0.0, 0.0, 0.0, 0.0, 0.0, 0.0, 0.0, 0.0, 0.0, 0.0, 0.0, 0.0, 0.0, 0.0, 0.0, 0.0, 0.0, 0.0, 0.0, 0.0, 0.0, 0.0)"
1969/12/31/19:21:15.285000,246923,1275,285000000,world,9.99999981866,2.24098474157e-07,4.03995484549,-1.71932425276e-07,4.05528768485e-08,-0.758150399622,-0.652079727911,"(0.0, 0.0, 0.0, 0.0, 0.0, 0.0, 0.0, 0.0, 0.0, 0.0, 0.0, 0.0, 0.0, 0.0, 0.0, 0.0, 0.0, 0.0, 0.0, 0.0, 0.0, 0.0, 0.0, 0.0, 0.0, 0.0, 0.0, 0.0, 0.0, 0.0, 0.0, 0.0, 0.0, 0.0, 0.0, 0.0)"
1969/12/31/19:21:15.290000,246924,1275,290000000,world,9.9999998179,2.25453820476e-07,4.03995337332,-1.71582458519e-07,4.12599499527e-08,-0.758166667508,-0.65206081333,"(0.0, 0.0, 0.0, 0.0, 0.0, 0.0, 0.0, 0.0, 0.0, 0.0, 0.0, 0.0, 0.0, 0.0, 0.0, 0.0, 0.0, 0.0, 0.0, 0.0, 0.0, 0.0, 0.0, 0.0, 0.0, 0.0, 0.0, 0.0, 0.0, 0.0, 0.0, 0.0, 0.0, 0.0, 0.0, 0.0)"
1969/12/31/19:21:15.295000,246925,1275,295000000,world,9.99999981719,2.26737620641e-07,4.03995190766,-1.71056672686e-07,4.19197942351e-08,-0.758182859613,-0.65204198591,"(0.0, 0.0, 0.0, 0.0, 0.0, 0.0, 0.0, 0.0, 0.0, 0.0, 0.0, 0.0, 0.0, 0.0, 0.0, 0.0, 0.0, 0.0, 0.0, 0.0, 0.0, 0.0, 0.0, 0.0, 0.0, 0.0, 0.0, 0.0, 0.0, 0.0, 0.0, 0.0, 0.0, 0.0, 0.0, 0.0)"
1969/12/31/19:21:15.300000,246926,1275,300000000,world,9.99999981653,2.27949843987e-07,4.03995044856,-1.703586493e-07,4.25232482856e-08,-0.758198976031,-0.652023245556,"(0.0, 0.0, 0.0, 0.0, 0.0, 0.0, 0.0, 0.0, 0.0, 0.0, 0.0, 0.0, 0.0, 0.0, 0.0, 0.0, 0.0, 0.0, 0.0, 0.0, 0.0, 0.0, 0.0, 0.0, 0.0, 0.0, 0.0, 0.0, 0.0, 0.0, 0.0, 0.0, 0.0, 0.0, 0.0, 0.0)"
1969/12/31/19:21:15.305000,246927,1275,305000000,world,9.99999981592,2.29090538492e-07,4.03994899601,-1.69491490248e-07,4.30641849684e-08,-0.758215016846,-0.652004592184,"(0.0, 0.0, 0.0, 0.0, 0.0, 0.0, 0.0, 0.0, 0.0, 0.0, 0.0, 0.0, 0.0, 0.0, 0.0, 0.0, 0.0, 0.0, 0.0, 0.0, 0.0, 0.0, 0.0, 0.0, 0.0, 0.0, 0.0, 0.0, 0.0, 0.0, 0.0, 0.0, 0.0, 0.0, 0.0, 0.0)"
1969/12/31/19:21:15.310000,246928,1275,310000000,world,9.99999981536,2.30159937595e-07,4.03994755026,-1.68173471464e-07,4.38825918326e-08,-0.758230982171,-0.651986025676,"(0.0, 0.0, 0.0, 0.0, 0.0, 0.0, 0.0, 0.0, 0.0, 0.0, 0.0, 0.0, 0.0, 0.0, 0.0, 0.0, 0.0, 0.0, 0.0, 0.0, 0.0, 0.0, 0.0, 0.0, 0.0, 0.0, 0.0, 0.0, 0.0, 0.0, 0.0, 0.0, 0.0, 0.0, 0.0, 0.0)"
1969/12/31/19:21:15.310000,246929,1275,315000000,world,9.99999981485,2.31158184963e-07,4.03994611152,-1.66559656006e-07,4.48159160856e-08,-0.758246872148,-0.651967545878,"(0.0, 0.0, 0.0, 0.0, 0.0, 0.0, 0.0, 0.0, 0.0, 0.0, 0.0, 0.0, 0.0, 0.0, 0.0, 0.0, 0.0, 0.0, 0.0, 0.0, 0.0, 0.0, 0.0, 0.0, 0.0, 0.0, 0.0, 0.0, 0.0, 0.0, 0.0, 0.0, 0.0, 0.0, 0.0, 0.0)"
1969/12/31/19:21:15.320000,246930,1275,320000000,world,9.99999981439,2.32085502773e-07,4.03994467993,-1.64750563096e-07,4.5774658681e-08,-0.758262686914,-0.651949152644,"(0.0, 0.0, 0.0, 0.0, 0.0, 0.0, 0.0, 0.0, 0.0, 0.0, 0.0, 0.0, 0.0, 0.0, 0.0, 0.0, 0.0, 0.0, 0.0, 0.0, 0.0, 0.0, 0.0, 0.0, 0.0, 0.0, 0.0, 0.0, 0.0, 0.0, 0.0, 0.0, 0.0, 0.0, 0.0, 0.0)"
1969/12/31/19:21:15.320000,246931,1275,325000000,world,9.99999981398,2.32942169186e-07,4.03994325553,-1.62808429972e-07,4.67055150767e-08,-0.758278426584,-0.651930845855,"(0.0, 0.0, 0.0, 0.0, 0.0, 0.0, 0.0, 0.0, 0.0, 0.0, 0.0, 0.0, 0.0, 0.0, 0.0, 0.0, 0.0, 0.0, 0.0, 0.0, 0.0, 0.0, 0.0, 0.0, 0.0, 0.0, 0.0, 0.0, 0.0, 0.0, 0.0, 0.0, 0.0, 0.0, 0.0, 0.0)"
1969/12/31/19:21:15.335000,246932,1275,335000000,world,9.99999981329,2.34444930561e-07,4.03994042813,-1.58657782842e-07,4.83780445114e-08,-0.758309681016,-0.651894491215,"(0.0, 0.0, 0.0, 0.0, 0.0, 0.0, 0.0, 0.0, 0.0, 0.0, 0.0, 0.0, 0.0, 0.0, 0.0, 0.0, 0.0, 0.0, 0.0, 0.0, 0.0, 0.0, 0.0, 0.0, 0.0, 0.0, 0.0, 0.0, 0.0, 0.0, 0.0, 0.0, 0.0, 0.0, 0.0, 0.0)"
1969/12/31/19:21:15.345000,246933,1275,340000000,world,9.99999981301,2.35091847385e-07,4.03993902497,-1.56481307407e-07,4.90983456332e-08,-0.758325195942,-0.6518764432,"(0.0, 0.0, 0.0, 0.0, 0.0, 0.0, 0.0, 0.0, 0.0, 0.0, 0.0, 0.0, 0.0, 0.0, 0.0, 0.0, 0.0, 0.0, 0.0, 0.0, 0.0, 0.0, 0.0, 0.0, 0.0, 0.0, 0.0, 0.0, 0.0, 0.0, 0.0, 0.0, 0.0, 0.0, 0.0, 0.0)"
1969/12/31/19:21:15.345000,246934,1275,345000000,world,9.99999981278,2.35669753583e-07,4.03993762873,-1.54245892612e-07,4.97387811009e-08,-0.758340636107,-0.65185848129,"(0.0, 0.0, 0.0, 0.0, 0.0, 0.0, 0.0, 0.0, 0.0, 0.0, 0.0, 0.0, 0.0, 0.0, 0.0, 0.0, 0.0, 0.0, 0.0, 0.0, 0.0, 0.0, 0.0, 0.0, 0.0, 0.0, 0.0, 0.0, 0.0, 0.0, 0.0, 0.0, 0.0, 0.0, 0.0, 0.0)"
1969/12/31/19:21:15.350000,246935,1275,350000000,world,9.99999981258,2.36179177226e-07,4.03993623942,-1.5195184718e-07,5.02967734371e-08,-0.758356001595,-0.651840605398,"(0.0, 0.0, 0.0, 0.0, 0.0, 0.0, 0.0, 0.0, 0.0, 0.0, 0.0, 0.0, 0.0, 0.0, 0.0, 0.0, 0.0, 0.0, 0.0, 0.0, 0.0, 0.0, 0.0, 0.0, 0.0, 0.0, 0.0, 0.0, 0.0, 0.0, 0.0, 0.0, 0.0, 0.0, 0.0, 0.0)"
1969/12/31/19:21:15.355000,246936,1275,355000000,world,9.99999981243,2.36620698339e-07,4.039934857,-1.49598324527e-07,5.07737607994e-08,-0.758371292485,-0.651822815445,"(0.0, 0.0, 0.0, 0.0, 0.0, 0.0, 0.0, 0.0, 0.0, 0.0, 0.0, 0.0, 0.0, 0.0, 0.0, 0.0, 0.0, 0.0, 0.0, 0.0, 0.0, 0.0, 0.0, 0.0, 0.0, 0.0, 0.0, 0.0, 0.0, 0.0, 0.0, 0.0, 0.0, 0.0, 0.0, 0.0)"
1969/12/31/19:21:15.370000,246937,1275,360000000,world,9.99999981232,2.36994954177e-07,4.03993348174,-1.47209979951e-07,5.11572500837e-08,-0.758386508927,-0.65180511127,"(0.0, 0.0, 0.0, 0.0, 0.0, 0.0, 0.0, 0.0, 0.0, 0.0, 0.0, 0.0, 0.0, 0.0, 0.0, 0.0, 0.0, 0.0, 0.0, 0.0, 0.0, 0.0, 0.0, 0.0, 0.0, 0.0, 0.0, 0.0, 0.0, 0.0, 0.0, 0.0, 0.0, 0.0, 0.0, 0.0)"
1969/12/31/19:21:15.370000,246939,1275,370000000,world,9.9999998122,2.37544395472e-07,4.03993075395,-1.42348270345e-07,5.16138087768e-08,-0.75841671919,-0.651769959459,"(0.0, 0.0, 0.0, 0.0, 0.0, 0.0, 0.0, 0.0, 0.0, 0.0, 0.0, 0.0, 0.0, 0.0, 0.0, 0.0, 0.0, 0.0, 0.0, 0.0, 0.0, 0.0, 0.0, 0.0, 0.0, 0.0, 0.0, 0.0, 0.0, 0.0, 0.0, 0.0, 0.0, 0.0, 0.0, 0.0)"
1969/12/31/19:21:15.385000,246940,1275,375000000,world,9.9999998122,2.37721079291e-07,4.03992940176,-1.39883568147e-07,5.16901448688e-08,-0.758431713334,-0.651752511472,"(0.0, 0.0, 0.0, 0.0, 0.0, 0.0, 0.0, 0.0, 0.0, 0.0, 0.0, 0.0, 0.0, 0.0, 0.0, 0.0, 0.0, 0.0, 0.0, 0.0, 0.0, 0.0, 0.0, 0.0, 0.0, 0.0, 0.0, 0.0, 0.0, 0.0, 0.0, 0.0, 0.0, 0.0, 0.0, 0.0)"
1969/12/31/19:21:15.385000,246941,1275,380000000,world,9.99999981224,2.37833484933e-07,4.03992805748,-1.37400991235e-07,5.16739612359e-08,-0.758446633682,-0.651735148551,"(0.0, 0.0, 0.0, 0.0, 0.0, 0.0, 0.0, 0.0, 0.0, 0.0, 0.0, 0.0, 0.0, 0.0, 0.0, 0.0, 0.0, 0.0, 0.0, 0.0, 0.0, 0.0, 0.0, 0.0, 0.0, 0.0, 0.0, 0.0, 0.0, 0.0, 0.0, 0.0, 0.0, 0.0, 0.0, 0.0)"
1969/12/31/19:21:15.395000,246942,1275,385000000,world,9.99999981231,2.37882468839e-07,4.03992672104,-1.34902138683e-07,5.15698431392e-08,-0.758461480351,-0.651717870573,"(0.0, 0.0, 0.0, 0.0, 0.0, 0.0, 0.0, 0.0, 0.0, 0.0, 0.0, 0.0, 0.0, 0.0, 0.0, 0.0, 0.0, 0.0, 0.0, 0.0, 0.0, 0.0, 0.0, 0.0, 0.0, 0.0, 0.0, 0.0, 0.0, 0.0, 0.0, 0.0, 0.0, 0.0, 0.0, 0.0)"
1969/12/31/19:21:15.395000,246943,1275,390000000,world,9.99999981241,2.37868923063e-07,4.03992539236,-1.32387575145e-07,5.13815938515e-08,-0.758476253441,-0.651700677433,"(0.0, 0.0, 0.0, 0.0, 0.0, 0.0, 0.0, 0.0, 0.0, 0.0, 0.0, 0.0, 0.0, 0.0, 0.0, 0.0, 0.0, 0.0, 0.0, 0.0, 0.0, 0.0, 0.0, 0.0, 0.0, 0.0, 0.0, 0.0, 0.0, 0.0, 0.0, 0.0, 0.0, 0.0, 0.0, 0.0)"
1969/12/31/19:21:15.395000,246944,1275,395000000,world,9.99999981255,2.37793774326e-07,4.0399240713,-1.29857243748e-07,5.11125854735e-08,-0.758490953039,-0.651683569041,"(0.0, 0.0, 0.0, 0.0, 0.0, 0.0, 0.0, 0.0, 0.0, 0.0, 0.0, 0.0, 0.0, 0.0, 0.0, 0.0, 0.0, 0.0, 0.0, 0.0, 0.0, 0.0, 0.0, 0.0, 0.0, 0.0, 0.0, 0.0, 0.0, 0.0, 0.0, 0.0, 0.0, 0.0, 0.0, 0.0)"
1969/12/31/19:21:15.400000,246945,1275,400000000,world,9.99999981272,2.37657983164e-07,4.03992275776,-1.2731085595e-07,5.07658640657e-08,-0.758505579225,-0.651666545316,"(0.0, 0.0, 0.0, 0.0, 0.0, 0.0, 0.0, 0.0, 0.0, 0.0, 0.0, 0.0, 0.0, 0.0, 0.0, 0.0, 0.0, 0.0, 0.0, 0.0, 0.0, 0.0, 0.0, 0.0, 0.0, 0.0, 0.0, 0.0, 0.0, 0.0, 0.0, 0.0, 0.0, 0.0, 0.0, 0.0)"
1969/12/31/19:21:15.405000,246946,1275,405000000,world,9.99999981291,2.37462543037e-07,4.0399214516,-1.247482096e-07,5.03440760841e-08,-0.758520132071,-0.651649606186,"(0.0, 0.0, 0.0, 0.0, 0.0, 0.0, 0.0, 0.0, 0.0, 0.0, 0.0, 0.0, 0.0, 0.0, 0.0, 0.0, 0.0, 0.0, 0.0, 0.0, 0.0, 0.0, 0.0, 0.0, 0.0, 0.0, 0.0, 0.0, 0.0, 0.0, 0.0, 0.0, 0.0, 0.0, 0.0, 0.0)"
1969/12/31/19:21:15.415000,246947,1275,410000000,world,9.99999981314,2.37208479366e-07,4.03992015273,-1.22169387585e-07,4.98493089879e-08,-0.758534611645,-0.651632751584,"(0.0, 0.0, 0.0, 0.0, 0.0, 0.0, 0.0, 0.0, 0.0, 0.0, 0.0, 0.0, 0.0, 0.0, 0.0, 0.0, 0.0, 0.0, 0.0, 0.0, 0.0, 0.0, 0.0, 0.0, 0.0, 0.0, 0.0, 0.0, 0.0, 0.0, 0.0, 0.0, 0.0, 0.0, 0.0, 0.0)"
1969/12/31/19:21:15.415000,246948,1275,415000000,world,9.9999998134,2.36896848556e-07,4.03991886114,-1.19574810909e-07,4.92829461825e-08,-0.758549018033,-0.651615981419,"(0.0, 0.0, 0.0, 0.0, 0.0, 0.0, 0.0, 0.0, 0.0, 0.0, 0.0, 0.0, 0.0, 0.0, 0.0, 0.0, 0.0, 0.0, 0.0, 0.0, 0.0, 0.0, 0.0, 0.0, 0.0, 0.0, 0.0, 0.0, 0.0, 0.0, 0.0, 0.0, 0.0, 0.0, 0.0, 0.0)"
1969/12/31/19:21:15.425000,246949,1275,420000000,world,9.99999981369,2.36529587373e-07,4.03991757758,-1.17811307104e-07,4.86968675899e-08,-0.758563351449,-0.651599295456,"(0.0, 0.0, 0.0, 0.0, 0.0, 0.0, 0.0, 0.0, 0.0, 0.0, 0.0, 0.0, 0.0, 0.0, 0.0, 0.0, 0.0, 0.0, 0.0, 0.0, 0.0, 0.0, 0.0, 0.0, 0.0, 0.0, 0.0, 0.0, 0.0, 0.0, 0.0, 0.0, 0.0, 0.0, 0.0, 0.0)"
1969/12/31/19:21:15.425000,246950,1275,425000000,world,9.999999814,2.36107426019e-07,4.03991630224,-1.16742503688e-07,4.80820522913e-08,-0.758577612074,-0.651582693493,"(0.0, 0.0, 0.0, 0.0, 0.0, 0.0, 0.0, 0.0, 0.0, 0.0, 0.0, 0.0, 0.0, 0.0, 0.0, 0.0, 0.0, 0.0, 0.0, 0.0, 0.0, 0.0, 0.0, 0.0, 0.0, 0.0, 0.0, 0.0, 0.0, 0.0, 0.0, 0.0, 0.0, 0.0, 0.0, 0.0)"
1969/12/31/19:21:15.430000,246951,1275,430000000,world,9.99999981434,2.35630896352e-07,4.03991503554,-1.16248597343e-07,4.74308870803e-08,-0.758591800167,-0.651566175242,"(0.0, 0.0, 0.0, 0.0, 0.0, 0.0, 0.0, 0.0, 0.0, 0.0, 0.0, 0.0, 0.0, 0.0, 0.0, 0.0, 0.0, 0.0, 0.0, 0.0, 0.0, 0.0, 0.0, 0.0, 0.0, 0.0, 0.0, 0.0, 0.0, 0.0, 0.0, 0.0, 0.0, 0.0, 0.0, 0.0)"
1969/12/31/19:21:15.435000,246952,1275,435000000,world,9.99999981471,2.35100376113e-07,4.03991377762,-1.16230216365e-07,4.67375270633e-08,-0.758605915928,-0.651549740479,"(0.0, 0.0, 0.0, 0.0, 0.0, 0.0, 0.0, 0.0, 0.0, 0.0, 0.0, 0.0, 0.0, 0.0, 0.0, 0.0, 0.0, 0.0, 0.0, 0.0, 0.0, 0.0, 0.0, 0.0, 0.0, 0.0, 0.0, 0.0, 0.0, 0.0, 0.0, 0.0, 0.0, 0.0, 0.0, 0.0)"
1969/12/31/19:21:15.440000,246953,1275,440000000,world,9.9999998151,2.3451611938e-07,4.03991252842,-1.16605197358e-07,4.59976015664e-08,-0.758619959521,-0.651533389027,"(0.0, 0.0, 0.0, 0.0, 0.0, 0.0, 0.0, 0.0, 0.0, 0.0, 0.0, 0.0, 0.0, 0.0, 0.0, 0.0, 0.0, 0.0, 0.0, 0.0, 0.0, 0.0, 0.0, 0.0, 0.0, 0.0, 0.0, 0.0, 0.0, 0.0, 0.0, 0.0, 0.0, 0.0, 0.0, 0.0)"
1969/12/31/19:21:15.445000,246954,1275,445000000,world,9.99999981553,2.33878281771e-07,4.03991128781,-1.17305924917e-07,4.52078124797e-08,-0.758633931077,-0.651517120741,"(0.0, 0.0, 0.0, 0.0, 0.0, 0.0, 0.0, 0.0, 0.0, 0.0, 0.0, 0.0, 0.0, 0.0, 0.0, 0.0, 0.0, 0.0, 0.0, 0.0, 0.0, 0.0, 0.0, 0.0, 0.0, 0.0, 0.0, 0.0, 0.0, 0.0, 0.0, 0.0, 0.0, 0.0, 0.0, 0.0)"
1969/12/31/19:21:15.455000,246955,1275,450000000,world,9.99999981598,2.33186932369e-07,4.03991005615,-1.18256295633e-07,4.43754766647e-08,-0.758647830857,-0.65150093533,"(0.0, 0.0, 0.0, 0.0, 0.0, 0.0, 0.0, 0.0, 0.0, 0.0, 0.0, 0.0, 0.0, 0.0, 0.0, 0.0, 0.0, 0.0, 0.0, 0.0, 0.0, 0.0, 0.0, 0.0, 0.0, 0.0, 0.0, 0.0, 0.0, 0.0, 0.0, 0.0, 0.0, 0.0, 0.0, 0.0)"
1969/12/31/19:21:15.455000,246956,1275,455000000,world,9.99999981646,2.32442084871e-07,4.03990883351,-1.19397305652e-07,4.35049382086e-08,-0.758661659065,-0.651484832566,"(0.0, 0.0, 0.0, 0.0, 0.0, 0.0, 0.0, 0.0, 0.0, 0.0, 0.0, 0.0, 0.0, 0.0, 0.0, 0.0, 0.0, 0.0, 0.0, 0.0, 0.0, 0.0, 0.0, 0.0, 0.0, 0.0, 0.0, 0.0, 0.0, 0.0, 0.0, 0.0, 0.0, 0.0, 0.0, 0.0)"
1969/12/31/19:21:15.455000,246957,1275,460000000,world,9.99999981697,2.31643712601e-07,4.03990761982,-1.20682914609e-07,4.25984903626e-08,-0.758675415866,-0.65146881227,"(0.0, 0.0, 0.0, 0.0, 0.0, 0.0, 0.0, 0.0, 0.0, 0.0, 0.0, 0.0, 0.0, 0.0, 0.0, 0.0, 0.0, 0.0, 0.0, 0.0, 0.0, 0.0, 0.0, 0.0, 0.0, 0.0, 0.0, 0.0, 0.0, 0.0, 0.0, 0.0, 0.0, 0.0, 0.0, 0.0)"
1969/12/31/19:21:15.465000,246958,1275,465000000,world,9.99999981751,2.30791760771e-07,4.03990641489,-1.22076870282e-07,4.16570829477e-08,-0.758689101393,-0.651452874296,"(0.0, 0.0, 0.0, 0.0, 0.0, 0.0, 0.0, 0.0, 0.0, 0.0, 0.0, 0.0, 0.0, 0.0, 0.0, 0.0, 0.0, 0.0, 0.0, 0.0, 0.0, 0.0, 0.0, 0.0, 0.0, 0.0, 0.0, 0.0, 0.0, 0.0, 0.0, 0.0, 0.0, 0.0, 0.0, 0.0)"
1969/12/31/19:21:15.470000,246959,1275,470000000,world,9.99999981808,2.29886156614e-07,4.03990521853,-1.23550285388e-07,4.06808857493e-08,-0.75870271576,-0.65143701852,"(0.0, 0.0, 0.0, 0.0, 0.0, 0.0, 0.0, 0.0, 0.0, 0.0, 0.0, 0.0, 0.0, 0.0, 0.0, 0.0, 0.0, 0.0, 0.0, 0.0, 0.0, 0.0, 0.0, 0.0, 0.0, 0.0, 0.0, 0.0, 0.0, 0.0, 0.0, 0.0, 0.0, 0.0, 0.0, 0.0)"
1969/12/31/19:21:15.480000,246960,1275,475000000,world,9.99999981868,2.28926817812e-07,4.03990403053,-1.25079834319e-07,3.96697221003e-08,-0.758716259066,-0.65142124484,"(0.0, 0.0, 0.0, 0.0, 0.0, 0.0, 0.0, 0.0, 0.0, 0.0, 0.0, 0.0, 0.0, 0.0, 0.0, 0.0, 0.0, 0.0, 0.0, 0.0, 0.0, 0.0, 0.0, 0.0, 0.0, 0.0, 0.0, 0.0, 0.0, 0.0, 0.0, 0.0, 0.0, 0.0, 0.0, 0.0)"
1969/12/31/19:21:15.480000,246961,1275,480000000,world,9.99999981932,2.2791365955e-07,4.03990285068,-1.2664646695e-07,3.86233653342e-08,-0.758729731398,-0.651405553164,"(0.0, 0.0, 0.0, 0.0, 0.0, 0.0, 0.0, 0.0, 0.0, 0.0, 0.0, 0.0, 0.0, 0.0, 0.0, 0.0, 0.0, 0.0, 0.0, 0.0, 0.0, 0.0, 0.0, 0.0, 0.0, 0.0, 0.0, 0.0, 0.0, 0.0, 0.0, 0.0, 0.0, 0.0, 0.0, 0.0)"
1969/12/31/19:21:15.480000,246962,1275,485000000,world,9.99999981999,2.26846600389e-07,4.0399016788,-1.28234537473e-07,3.7541695109e-08,-0.758743132833,-0.651389943413,"(0.0, 0.0, 0.0, 0.0, 0.0, 0.0, 0.0, 0.0, 0.0, 0.0, 0.0, 0.0, 0.0, 0.0, 0.0, 0.0, 0.0, 0.0, 0.0, 0.0, 0.0, 0.0, 0.0, 0.0, 0.0, 0.0, 0.0, 0.0, 0.0, 0.0, 0.0, 0.0, 0.0, 0.0, 0.0, 0.0)"
1969/12/31/19:21:15.485000,246963,1275,490000000,world,9.9999998207,2.2572556711e-07,4.03990051472,-1.29831236618e-07,3.64247291191e-08,-0.758756463443,-0.651374415512,"(0.0, 0.0, 0.0, 0.0, 0.0, 0.0, 0.0, 0.0, 0.0, 0.0, 0.0, 0.0, 0.0, 0.0, 0.0, 0.0, 0.0, 0.0, 0.0, 0.0, 0.0, 0.0, 0.0, 0.0, 0.0, 0.0, 0.0, 0.0, 0.0, 0.0, 0.0, 0.0, 0.0, 0.0, 0.0, 0.0)"
1969/12/31/19:21:15.500000,246964,1275,495000000,world,9.99999982144,2.24550498624e-07,4.0398993583,-1.3142621091e-07,3.5272566102e-08,-0.758769723295,-0.651358969394,"(0.0, 0.0, 0.0, 0.0, 0.0, 0.0, 0.0, 0.0, 0.0, 0.0, 0.0, 0.0, 0.0, 0.0, 0.0, 0.0, 0.0, 0.0, 0.0, 0.0, 0.0, 0.0, 0.0, 0.0, 0.0, 0.0, 0.0, 0.0, 0.0, 0.0, 0.0, 0.0, 0.0, 0.0, 0.0, 0.0)"
1969/12/31/19:21:15.500000,246965,1275,500000000,world,9.99999982222,2.23321296169e-07,4.0398982104,-1.32952129355e-07,3.40878997662e-08,-0.758782912734,-0.651343604668,"(0.0, 0.0, 0.0, 0.0, 0.0, 0.0, 0.0, 0.0, 0.0, 0.0, 0.0, 0.0, 0.0, 0.0, 0.0, 0.0, 0.0, 0.0, 0.0, 0.0, 0.0, 0.0, 0.0, 0.0, 0.0, 0.0, 0.0, 0.0, 0.0, 0.0, 0.0, 0.0, 0.0, 0.0, 0.0, 0.0)"
1969/12/31/19:21:15.505000,246966,1275,505000000,world,9.99999982304,2.22037908701e-07,4.03989707138,-1.34359494163e-07,3.28730541517e-08,-0.758796032024,-0.651328321037,"(0.0, 0.0, 0.0, 0.0, 0.0, 0.0, 0.0, 0.0, 0.0, 0.0, 0.0, 0.0, 0.0, 0.0, 0.0, 0.0, 0.0, 0.0, 0.0, 0.0, 0.0, 0.0, 0.0, 0.0, 0.0, 0.0, 0.0, 0.0, 0.0, 0.0, 0.0, 0.0, 0.0, 0.0, 0.0, 0.0)"
1969/12/31/19:21:15.515000,246967,1275,510000000,world,9.99999982389,2.20700343624e-07,4.03989594131,-1.35611623737e-07,3.16299198177e-08,-0.75880908137,-0.651313118269,"(0.0, 0.0, 0.0, 0.0, 0.0, 0.0, 0.0, 0.0, 0.0, 0.0, 0.0, 0.0, 0.0, 0.0, 0.0, 0.0, 0.0, 0.0, 0.0, 0.0, 0.0, 0.0, 0.0, 0.0, 0.0, 0.0, 0.0, 0.0, 0.0, 0.0, 0.0, 0.0, 0.0, 0.0, 0.0, 0.0)"
1969/12/31/19:21:15.515000,246968,1275,515000000,world,9.99999982479,2.19308674939e-07,4.03989482012,-1.36681009558e-07,3.0360029682e-08,-0.758822060939,-0.651297996183,"(0.0, 0.0, 0.0, 0.0, 0.0, 0.0, 0.0, 0.0, 0.0, 0.0, 0.0, 0.0, 0.0, 0.0, 0.0, 0.0, 0.0, 0.0, 0.0, 0.0, 0.0, 0.0, 0.0, 0.0, 0.0, 0.0, 0.0, 0.0, 0.0, 0.0, 0.0, 0.0, 0.0, 0.0, 0.0, 0.0)"
1969/12/31/19:21:15.520000,246969,1275,520000000,world,9.99999982572,2.17863064123e-07,4.0398937081,-1.37549158596e-07,2.90760822306e-08,-0.758834971001,-0.651282954472,"(0.0, 0.0, 0.0, 0.0, 0.0, 0.0, 0.0, 0.0, 0.0, 0.0, 0.0, 0.0, 0.0, 0.0, 0.0, 0.0, 0.0, 0.0, 0.0, 0.0, 0.0, 0.0, 0.0, 0.0, 0.0, 0.0, 0.0, 0.0, 0.0, 0.0, 0.0, 0.0, 0.0, 0.0, 0.0, 0.0)"
1969/12/31/19:21:15.525000,246970,1275,525000000,world,9.9999998267,2.1636374126e-07,4.03989260528,-1.382014396e-07,2.77868867745e-08,-0.758847811767,-0.6512679929,"(0.0, 0.0, 0.0, 0.0, 0.0, 0.0, 0.0, 0.0, 0.0, 0.0, 0.0, 0.0, 0.0, 0.0, 0.0, 0.0, 0.0, 0.0, 0.0, 0.0, 0.0, 0.0, 0.0, 0.0, 0.0, 0.0, 0.0, 0.0, 0.0, 0.0, 0.0, 0.0, 0.0, 0.0, 0.0, 0.0)"
1969/12/31/19:21:15.530000,246971,1275,530000000,world,9.99999982772,2.14811006912e-07,4.03989151152,-1.3862607653e-07,2.64986527699e-08,-0.758860583408,-0.651253111279,"(0.0, 0.0, 0.0, 0.0, 0.0, 0.0, 0.0, 0.0, 0.0, 0.0, 0.0, 0.0, 0.0, 0.0, 0.0, 0.0, 0.0, 0.0, 0.0, 0.0, 0.0, 0.0, 0.0, 0.0, 0.0, 0.0, 0.0, 0.0, 0.0, 0.0, 0.0, 0.0, 0.0, 0.0, 0.0, 0.0)"
1969/12/31/19:21:15.545000,246972,1275,535000000,world,9.99999982878,2.13205233829e-07,4.03989042661,-1.38813505677e-07,2.52158040319e-08,-0.758873286061,-0.651238309456,"(0.0, 0.0, 0.0, 0.0, 0.0, 0.0, 0.0, 0.0, 0.0, 0.0, 0.0, 0.0, 0.0, 0.0, 0.0, 0.0, 0.0, 0.0, 0.0, 0.0, 0.0, 0.0, 0.0, 0.0, 0.0, 0.0, 0.0, 0.0, 0.0, 0.0, 0.0, 0.0, 0.0, 0.0, 0.0, 0.0)"
1969/12/31/19:21:15.545000,246973,1275,540000000,world,9.99999982988,2.11546876459e-07,4.03988935092,-1.38757334197e-07,2.39477433222e-08,-0.758885920021,-0.651223587099,"(0.0, 0.0, 0.0, 0.0, 0.0, 0.0, 0.0, 0.0, 0.0, 0.0, 0.0, 0.0, 0.0, 0.0, 0.0, 0.0, 0.0, 0.0, 0.0, 0.0, 0.0, 0.0, 0.0, 0.0, 0.0, 0.0, 0.0, 0.0, 0.0, 0.0, 0.0, 0.0, 0.0, 0.0, 0.0, 0.0)"
1969/12/31/19:21:15.550000,246974,1275,545000000,world,9.99999983103,2.09836460581e-07,4.03988828449,-1.38452468093e-07,2.27017613147e-08,-0.758898485513,-0.651208943955,"(0.0, 0.0, 0.0, 0.0, 0.0, 0.0, 0.0, 0.0, 0.0, 0.0, 0.0, 0.0, 0.0, 0.0, 0.0, 0.0, 0.0, 0.0, 0.0, 0.0, 0.0, 0.0, 0.0, 0.0, 0.0, 0.0, 0.0, 0.0, 0.0, 0.0, 0.0, 0.0, 0.0, 0.0, 0.0, 0.0)"
1969/12/31/19:21:15.550000,246975,1275,550000000,world,9.99999983222,2.08074582423e-07,4.03988722719,-1.37894937767e-07,2.14834853982e-08,-0.758910982719,-0.65119437982,"(0.0, 0.0, 0.0, 0.0, 0.0, 0.0, 0.0, 0.0, 0.0, 0.0, 0.0, 0.0, 0.0, 0.0, 0.0, 0.0, 0.0, 0.0, 0.0, 0.0, 0.0, 0.0, 0.0, 0.0, 0.0, 0.0, 0.0, 0.0, 0.0, 0.0, 0.0, 0.0, 0.0, 0.0, 0.0, 0.0)"
1969/12/31/19:21:15.555000,246976,1275,555000000,world,9.99999983345,2.06261907966e-07,4.03988617881,-1.3708170068e-07,2.02972741606e-08,-0.758923411785,-0.651179894533,"(0.0, 0.0, 0.0, 0.0, 0.0, 0.0, 0.0, 0.0, 0.0, 0.0, 0.0, 0.0, 0.0, 0.0, 0.0, 0.0, 0.0, 0.0, 0.0, 0.0, 0.0, 0.0, 0.0, 0.0, 0.0, 0.0, 0.0, 0.0, 0.0, 0.0, 0.0, 0.0, 0.0, 0.0, 0.0, 0.0)"
1969/12/31/19:21:15.565000,246977,1275,560000000,world,9.99999983473,2.04399172359e-07,4.03988513908,-1.36010412028e-07,1.91465839421e-08,-0.758935772835,-0.651165487961,"(0.0, 0.0, 0.0, 0.0, 0.0, 0.0, 0.0, 0.0, 0.0, 0.0, 0.0, 0.0, 0.0, 0.0, 0.0, 0.0, 0.0, 0.0, 0.0, 0.0, 0.0, 0.0, 0.0, 0.0, 0.0, 0.0, 0.0, 0.0, 0.0, 0.0, 0.0, 0.0, 0.0, 0.0, 0.0, 0.0)"
1969/12/31/19:21:15.565000,246978,1275,565000000,world,9.99999983605,2.02487182409e-07,4.03988410798,-1.34670047279e-07,1.80449754537e-08,-0.758948066044,-0.651151159907,"(0.0, 0.0, 0.0, 0.0, 0.0, 0.0, 0.0, 0.0, 0.0, 0.0, 0.0, 0.0, 0.0, 0.0, 0.0, 0.0, 0.0, 0.0, 0.0, 0.0, 0.0, 0.0, 0.0, 0.0, 0.0, 0.0, 0.0, 0.0, 0.0, 0.0, 0.0, 0.0, 0.0, 0.0, 0.0, 0.0)"
1969/12/31/19:21:15.570000,246979,1275,570000000,world,9.99999983742,2.0052681122e-07,4.03988308539,-1.33052891944e-07,1.70021419532e-08,-0.758960291555,-0.651136910214,"(0.0, 0.0, 0.0, 0.0, 0.0, 0.0, 0.0, 0.0, 0.0, 0.0, 0.0, 0.0, 0.0, 0.0, 0.0, 0.0, 0.0, 0.0, 0.0, 0.0, 0.0, 0.0, 0.0, 0.0, 0.0, 0.0, 0.0, 0.0, 0.0, 0.0, 0.0, 0.0, 0.0, 0.0, 0.0, 0.0)"
1969/12/31/19:21:15.575000,246980,1275,575000000,world,9.99999983883,1.98518997243e-07,4.0398820711,-1.31153413477e-07,1.60252058983e-08,-0.758972449486,-0.651122738753,"(0.0, 0.0, 0.0, 0.0, 0.0, 0.0, 0.0, 0.0, 0.0, 0.0, 0.0, 0.0, 0.0, 0.0, 0.0, 0.0, 0.0, 0.0, 0.0, 0.0, 0.0, 0.0, 0.0, 0.0, 0.0, 0.0, 0.0, 0.0, 0.0, 0.0, 0.0, 0.0, 0.0, 0.0, 0.0, 0.0)"
1969/12/31/19:21:15.580000,246981,1275,580000000,world,9.99999984028,1.96464740372e-07,4.0398810653,-1.28976712762e-07,1.51088430706e-08,-0.758984540047,-0.651108645289,"(0.0, 0.0, 0.0, 0.0, 0.0, 0.0, 0.0, 0.0, 0.0, 0.0, 0.0, 0.0, 0.0, 0.0, 0.0, 0.0, 0.0, 0.0, 0.0, 0.0, 0.0, 0.0, 0.0, 0.0, 0.0, 0.0, 0.0, 0.0, 0.0, 0.0, 0.0, 0.0, 0.0, 0.0, 0.0, 0.0)"
1969/12/31/19:21:15.590000,246982,1275,585000000,world,9.99999984177,1.9436512434e-07,4.03988006843,-1.26544056368e-07,1.42510007592e-08,-0.758996563552,-0.651094629463,"(0.0, 0.0, 0.0, 0.0, 0.0, 0.0, 0.0, 0.0, 0.0, 0.0, 0.0, 0.0, 0.0, 0.0, 0.0, 0.0, 0.0, 0.0, 0.0, 0.0, 0.0, 0.0, 0.0, 0.0, 0.0, 0.0, 0.0, 0.0, 0.0, 0.0, 0.0, 0.0, 0.0, 0.0, 0.0, 0.0)"
1969/12/31/19:21:15.600000,246983,1275,590000000,world,9.99999984331,1.92221288175e-07,4.0398790806,-1.23870666953e-07,1.34504690822e-08,-0.759008520245,-0.651080691002,"(0.0, 0.0, 0.0, 0.0, 0.0, 0.0, 0.0, 0.0, 0.0, 0.0, 0.0, 0.0, 0.0, 0.0, 0.0, 0.0, 0.0, 0.0, 0.0, 0.0, 0.0, 0.0, 0.0, 0.0, 0.0, 0.0, 0.0, 0.0, 0.0, 0.0, 0.0, 0.0, 0.0, 0.0, 0.0, 0.0)"
1969/12/31/19:21:15.600000,246985,1275,600000000,world,9.9999998465,1.87805768117e-07,4.03987713155,-1.17843512067e-07,1.20175295219e-08,-0.759032233922,-0.651053045356,"(0.0, 0.0, 0.0, 0.0, 0.0, 0.0, 0.0, 0.0, 0.0, 0.0, 0.0, 0.0, 0.0, 0.0, 0.0, 0.0, 0.0, 0.0, 0.0, 0.0, 0.0, 0.0, 0.0, 0.0, 0.0, 0.0, 0.0, 0.0, 0.0, 0.0, 0.0, 0.0, 0.0, 0.0, 0.0, 0.0)"
1969/12/31/19:21:15.600000,246986,1275,605000000,world,9.99999984816,1.8553661179e-07,4.03987616985,-1.14504429065e-07,1.13830656506e-08,-0.759043991188,-0.65103933786,"(0.0, 0.0, 0.0, 0.0, 0.0, 0.0, 0.0, 0.0, 0.0, 0.0, 0.0, 0.0, 0.0, 0.0, 0.0, 0.0, 0.0, 0.0, 0.0, 0.0, 0.0, 0.0, 0.0, 0.0, 0.0, 0.0, 0.0, 0.0, 0.0, 0.0, 0.0, 0.0, 0.0, 0.0, 0.0, 0.0)"
1969/12/31/19:21:15.610000,246987,1275,610000000,world,9.99999984985,1.83228287329e-07,4.03987521635,-1.10955155943e-07,1.08018793984e-08,-0.759055682224,-0.651025707084,"(0.0, 0.0, 0.0, 0.0, 0.0, 0.0, 0.0, 0.0, 0.0, 0.0, 0.0, 0.0, 0.0, 0.0, 0.0, 0.0, 0.0, 0.0, 0.0, 0.0, 0.0, 0.0, 0.0, 0.0, 0.0, 0.0, 0.0, 0.0, 0.0, 0.0, 0.0, 0.0, 0.0, 0.0, 0.0, 0.0)"
1969/12/31/19:21:15.615000,246988,1275,615000000,world,9.99999985158,1.80882173623e-07,4.03987427078,-1.07199010284e-07,1.02732201842e-08,-0.759067307122,-0.651012152927,"(0.0, 0.0, 0.0, 0.0, 0.0, 0.0, 0.0, 0.0, 0.0, 0.0, 0.0, 0.0, 0.0, 0.0, 0.0, 0.0, 0.0, 0.0, 0.0, 0.0, 0.0, 0.0, 0.0, 0.0, 0.0, 0.0, 0.0, 0.0, 0.0, 0.0, 0.0, 0.0, 0.0, 0.0, 0.0, 0.0)"
1969/12/31/19:21:15.625000,246989,1275,620000000,world,9.99999985335,1.78499697699e-07,4.03987333344,-1.03253653422e-07,9.78656485529e-09,-0.759078866117,-0.650998675125,"(0.0, 0.0, 0.0, 0.0, 0.0, 0.0, 0.0, 0.0, 0.0, 0.0, 0.0, 0.0, 0.0, 0.0, 0.0, 0.0, 0.0, 0.0, 0.0, 0.0, 0.0, 0.0, 0.0, 0.0, 0.0, 0.0, 0.0, 0.0, 0.0, 0.0, 0.0, 0.0, 0.0, 0.0, 0.0, 0.0)"
1969/12/31/19:21:15.625000,246990,1275,625000000,world,9.99999985515,1.76082336594e-07,4.03987240448,-9.91326561402e-08,9.34063821572e-09,-0.759090359433,-0.650985273424,"(0.0, 0.0, 0.0, 0.0, 0.0, 0.0, 0.0, 0.0, 0.0, 0.0, 0.0, 0.0, 0.0, 0.0, 0.0, 0.0, 0.0, 0.0, 0.0, 0.0, 0.0, 0.0, 0.0, 0.0, 0.0, 0.0, 0.0, 0.0, 0.0, 0.0, 0.0, 0.0, 0.0, 0.0, 0.0, 0.0)"
1969/12/31/19:21:15.630000,246991,1275,630000000,world,9.99999985698,1.73631607253e-07,4.03987148425,-9.48609117371e-08,8.92420286893e-09,-0.759101787363,-0.650971947493,"(0.0, 0.0, 0.0, 0.0, 0.0, 0.0, 0.0, 0.0, 0.0, 0.0, 0.0, 0.0, 0.0, 0.0, 0.0, 0.0, 0.0, 0.0, 0.0, 0.0, 0.0, 0.0, 0.0, 0.0, 0.0, 0.0, 0.0, 0.0, 0.0, 0.0, 0.0, 0.0, 0.0, 0.0, 0.0, 0.0)"
1969/12/31/19:21:15.635000,246992,1275,635000000,world,9.99999985885,1.71149060662e-07,4.03987057277,-9.04563865301e-08,8.5298068649e-09,-0.759113150133,-0.650958697073,"(0.0, 0.0, 0.0, 0.0, 0.0, 0.0, 0.0, 0.0, 0.0, 0.0, 0.0, 0.0, 0.0, 0.0, 0.0, 0.0, 0.0, 0.0, 0.0, 0.0, 0.0, 0.0, 0.0, 0.0, 0.0, 0.0, 0.0, 0.0, 0.0, 0.0, 0.0, 0.0, 0.0, 0.0, 0.0, 0.0)"
1969/12/31/19:21:15.640000,246993,1275,640000000,world,9.99999986074,1.68636285769e-07,4.03986967032,-8.59388634428e-08,8.15277293954e-09,-0.759124448042,-0.650945521825,"(0.0, 0.0, 0.0, 0.0, 0.0, 0.0, 0.0, 0.0, 0.0, 0.0, 0.0, 0.0, 0.0, 0.0, 0.0, 0.0, 0.0, 0.0, 0.0, 0.0, 0.0, 0.0, 0.0, 0.0, 0.0, 0.0, 0.0, 0.0, 0.0, 0.0, 0.0, 0.0, 0.0, 0.0, 0.0, 0.0)"
1969/12/31/19:21:15.650000,246994,1275,645000000,world,9.99999986267,1.66094897853e-07,4.03986877698,-8.132399592e-08,7.78960802217e-09,-0.759135681365,-0.650932421438,"(0.0, 0.0, 0.0, 0.0, 0.0, 0.0, 0.0, 0.0, 0.0, 0.0, 0.0, 0.0, 0.0, 0.0, 0.0, 0.0, 0.0, 0.0, 0.0, 0.0, 0.0, 0.0, 0.0, 0.0, 0.0, 0.0, 0.0, 0.0, 0.0, 0.0, 0.0, 0.0, 0.0, 0.0, 0.0, 0.0)"
1969/12/31/19:21:15.650000,246995,1275,650000000,world,9.99999986461,1.63526534992e-07,4.03986789263,-7.66245340982e-08,7.43722969615e-09,-0.759146850313,-0.65091939567,"(0.0, 0.0, 0.0, 0.0, 0.0, 0.0, 0.0, 0.0, 0.0, 0.0, 0.0, 0.0, 0.0, 0.0, 0.0, 0.0, 0.0, 0.0, 0.0, 0.0, 0.0, 0.0, 0.0, 0.0, 0.0, 0.0, 0.0, 0.0, 0.0, 0.0, 0.0, 0.0, 0.0, 0.0, 0.0, 0.0)"
1969/12/31/19:21:15.655000,246996,1275,655000000,world,9.99999986659,1.60932866849e-07,4.03986701715,-7.18626683781e-08,7.09324500075e-09,-0.759157955098,-0.650906444285,"(0.0, 0.0, 0.0, 0.0, 0.0, 0.0, 0.0, 0.0, 0.0, 0.0, 0.0, 0.0, 0.0, 0.0, 0.0, 0.0, 0.0, 0.0, 0.0, 0.0, 0.0, 0.0, 0.0, 0.0, 0.0, 0.0, 0.0, 0.0, 0.0, 0.0, 0.0, 0.0, 0.0, 0.0, 0.0, 0.0)"
1969/12/31/19:21:15.665000,246997,1275,660000000,world,9.99999986858,1.58315573633e-07,4.03986615028,-6.70548657984e-08,6.75495898592e-09,-0.759168995888,-0.650893567092,"(0.0, 0.0, 0.0, 0.0, 0.0, 0.0, 0.0, 0.0, 0.0, 0.0, 0.0, 0.0, 0.0, 0.0, 0.0, 0.0, 0.0, 0.0, 0.0, 0.0, 0.0, 0.0, 0.0, 0.0, 0.0, 0.0, 0.0, 0.0, 0.0, 0.0, 0.0, 0.0, 0.0, 0.0, 0.0, 0.0)"
1969/12/31/19:21:15.665000,246998,1275,665000000,world,9.9999998706,1.55676343178e-07,4.03986529174,-6.22132210964e-08,6.4196832722e-09,-0.759179972821,-0.65088076394,"(0.0, 0.0, 0.0, 0.0, 0.0, 0.0, 0.0, 0.0, 0.0, 0.0, 0.0, 0.0, 0.0, 0.0, 0.0, 0.0, 0.0, 0.0, 0.0, 0.0, 0.0, 0.0, 0.0, 0.0, 0.0, 0.0, 0.0, 0.0, 0.0, 0.0, 0.0, 0.0, 0.0, 0.0, 0.0, 0.0)"
1969/12/31/19:21:15.675000,246999,1275,670000000,world,9.99999987264,1.53016869137e-07,4.03986444122,-5.73463440961e-08,6.08515198963e-09,-0.759190886013,-0.650868034701,"(0.0, 0.0, 0.0, 0.0, 0.0, 0.0, 0.0, 0.0, 0.0, 0.0, 0.0, 0.0, 0.0, 0.0, 0.0, 0.0, 0.0, 0.0, 0.0, 0.0, 0.0, 0.0, 0.0, 0.0, 0.0, 0.0, 0.0, 0.0, 0.0, 0.0, 0.0, 0.0, 0.0, 0.0, 0.0, 0.0)"
1969/12/31/19:21:15.675000,247000,1275,675000000,world,9.9999998747,1.50338849964e-07,4.03986359841,-5.2460049555e-08,5.74989617452e-09,-0.759201735561,-0.650855379267,"(0.0, 0.0, 0.0, 0.0, 0.0, 0.0, 0.0, 0.0, 0.0, 0.0, 0.0, 0.0, 0.0, 0.0, 0.0, 0.0, 0.0, 0.0, 0.0, 0.0, 0.0, 0.0, 0.0, 0.0, 0.0, 0.0, 0.0, 0.0, 0.0, 0.0, 0.0, 0.0, 0.0, 0.0, 0.0, 0.0)"
1969/12/31/19:21:15.675000,247001,1275,680000000,world,9.99999987677,1.47643988294e-07,4.03986276347,-4.75580077446e-08,5.41344706085e-09,-0.759212521673,-0.650842797405,"(0.0, 0.0, 0.0, 0.0, 0.0, 0.0, 0.0, 0.0, 0.0, 0.0, 0.0, 0.0, 0.0, 0.0, 0.0, 0.0, 0.0, 0.0, 0.0, 0.0, 0.0, 0.0, 0.0, 0.0, 0.0, 0.0, 0.0, 0.0, 0.0, 0.0, 0.0, 0.0, 0.0, 0.0, 0.0, 0.0)"
1969/12/31/19:21:15.675000,247004,1275,695000000,world,9.99999988306,1.39475426515e-07,4.03986030477,-3.27757956964e-08,4.40475195976e-09,-0.759244500896,-0.650805491571,"(0.0, 0.0, 0.0, 0.0, 0.0, 0.0, 0.0, 0.0, 0.0, 0.0, 0.0, 0.0, 0.0, 0.0, 0.0, 0.0, 0.0, 0.0, 0.0, 0.0, 0.0, 0.0, 0.0, 0.0, 0.0, 0.0, 0.0, 0.0, 0.0, 0.0, 0.0, 0.0, 0.0, 0.0, 0.0, 0.0)"
1969/12/31/19:21:15.700000,247005,1275,700000000,world,9.99999988518,1.36730284999e-07,4.03985949997,-2.78272033984e-08,4.0728546315e-09,-0.759255034642,-0.650793202462,"(0.0, 0.0, 0.0, 0.0, 0.0, 0.0, 0.0, 0.0, 0.0, 0.0, 0.0, 0.0, 0.0, 0.0, 0.0, 0.0, 0.0, 0.0, 0.0, 0.0, 0.0, 0.0, 0.0, 0.0, 0.0, 0.0, 0.0, 0.0, 0.0, 0.0, 0.0, 0.0, 0.0, 0.0, 0.0, 0.0)"
1969/12/31/19:21:15.710000,247006,1275,705000000,world,9.99999988731,1.33976854495e-07,4.03985870221,-2.28705216792e-08,3.74434272433e-09,-0.759265505539,-0.650780986277,"(0.0, 0.0, 0.0, 0.0, 0.0, 0.0, 0.0, 0.0, 0.0, 0.0, 0.0, 0.0, 0.0, 0.0, 0.0, 0.0, 0.0, 0.0, 0.0, 0.0, 0.0, 0.0, 0.0, 0.0, 0.0, 0.0, 0.0, 0.0, 0.0, 0.0, 0.0, 0.0, 0.0, 0.0, 0.0, 0.0)"
1969/12/31/19:21:15.710000,247007,1275,710000000,world,9.99999988944,1.31216847242e-07,4.0398579113,-1.79077513609e-08,3.41878183125e-09,-0.759275913659,-0.650768842937,"(0.0, 0.0, 0.0, 0.0, 0.0, 0.0, 0.0, 0.0, 0.0, 0.0, 0.0, 0.0, 0.0, 0.0, 0.0, 0.0, 0.0, 0.0, 0.0, 0.0, 0.0, 0.0, 0.0, 0.0, 0.0, 0.0, 0.0, 0.0, 0.0, 0.0, 0.0, 0.0, 0.0, 0.0, 0.0, 0.0)"
1969/12/31/19:21:15.715000,247008,1275,715000000,world,9.99999989158,1.28451989055e-07,4.03985712761,-1.296823463e-08,3.08531996635e-09,-0.759286259232,-0.650756772183,"(0.0, 0.0, 0.0, 0.0, 0.0, 0.0, 0.0, 0.0, 0.0, 0.0, 0.0, 0.0, 0.0, 0.0, 0.0, 0.0, 0.0, 0.0, 0.0, 0.0, 0.0, 0.0, 0.0, 0.0, 0.0, 0.0, 0.0, 0.0, 0.0, 0.0, 0.0, 0.0, 0.0, 0.0, 0.0, 0.0)"
1969/12/31/19:21:15.720000,247009,1275,720000000,world,9.99999989372,1.25683995664e-07,4.03985635124,-8.07304247134e-09,2.73581811783e-09,-0.759296542435,-0.650744773814,"(0.0, 0.0, 0.0, 0.0, 0.0, 0.0, 0.0, 0.0, 0.0, 0.0, 0.0, 0.0, 0.0, 0.0, 0.0, 0.0, 0.0, 0.0, 0.0, 0.0, 0.0, 0.0, 0.0, 0.0, 0.0, 0.0, 0.0, 0.0, 0.0, 0.0, 0.0, 0.0, 0.0, 0.0, 0.0, 0.0)"
1969/12/31/19:21:15.730000,247010,1275,725000000,world,9.99999989586,1.22914583227e-07,4.039855583,-3.2445984587e-09,2.36976395751e-09,-0.759306763665,-0.650732847375,"(0.0, 0.0, 0.0, 0.0, 0.0, 0.0, 0.0, 0.0, 0.0, 0.0, 0.0, 0.0, 0.0, 0.0, 0.0, 0.0, 0.0, 0.0, 0.0, 0.0, 0.0, 0.0, 0.0, 0.0, 0.0, 0.0, 0.0, 0.0, 0.0, 0.0, 0.0, 0.0, 0.0, 0.0, 0.0, 0.0)"
1969/12/31/19:21:15.730000,247011,1275,730000000,world,9.99999989799,1.20145445481e-07,4.03985482314,1.50108980273e-09,1.98590818202e-09,-0.759316923221,-0.650720992523,"(0.0, 0.0, 0.0, 0.0, 0.0, 0.0, 0.0, 0.0, 0.0, 0.0, 0.0, 0.0, 0.0, 0.0, 0.0, 0.0, 0.0, 0.0, 0.0, 0.0, 0.0, 0.0, 0.0, 0.0, 0.0, 0.0, 0.0, 0.0, 0.0, 0.0, 0.0, 0.0, 0.0, 0.0, 0.0, 0.0)"
1969/12/31/19:21:15.740000,247012,1275,735000000,world,9.99999990013,1.17378244731e-07,4.03985407209,6.15391820432e-09,1.5780589821e-09,-0.759327021466,-0.650709208842,"(0.0, 0.0, 0.0, 0.0, 0.0, 0.0, 0.0, 0.0, 0.0, 0.0, 0.0, 0.0, 0.0, 0.0, 0.0, 0.0, 0.0, 0.0, 0.0, 0.0, 0.0, 0.0, 0.0, 0.0, 0.0, 0.0, 0.0, 0.0, 0.0, 0.0, 0.0, 0.0, 0.0, 0.0, 0.0, 0.0)"
1969/12/31/19:21:15.740000,247013,1275,740000000,world,9.99999990226,1.14614622111e-07,4.03985332986,1.07066632458e-08,1.14323519008e-09,-0.759337058677,-0.650697496015,"(0.0, 0.0, 0.0, 0.0, 0.0, 0.0, 0.0, 0.0, 0.0, 0.0, 0.0, 0.0, 0.0, 0.0, 0.0, 0.0, 0.0, 0.0, 0.0, 0.0, 0.0, 0.0, 0.0, 0.0, 0.0, 0.0, 0.0, 0.0, 0.0, 0.0, 0.0, 0.0, 0.0, 0.0, 0.0, 0.0)"
1969/12/31/19:21:15.745000,247014,1275,745000000,world,9.99999990438,1.11856196184e-07,4.03985259625,1.51540378476e-08,6.80656301901e-10,-0.759347035071,-0.650685853795,"(0.0, 0.0, 0.0, 0.0, 0.0, 0.0, 0.0, 0.0, 0.0, 0.0, 0.0, 0.0, 0.0, 0.0, 0.0, 0.0, 0.0, 0.0, 0.0, 0.0, 0.0, 0.0, 0.0, 0.0, 0.0, 0.0, 0.0, 0.0, 0.0, 0.0, 0.0, 0.0, 0.0, 0.0, 0.0, 0.0)"
1969/12/31/19:21:15.750000,247015,1275,750000000,world,9.9999999065,1.09104561306e-07,4.03985187094,1.94918769342e-08,1.90801292072e-10,-0.759356950822,-0.650674281986,"(0.0, 0.0, 0.0, 0.0, 0.0, 0.0, 0.0, 0.0, 0.0, 0.0, 0.0, 0.0, 0.0, 0.0, 0.0, 0.0, 0.0, 0.0, 0.0, 0.0, 0.0, 0.0, 0.0, 0.0, 0.0, 0.0, 0.0, 0.0, 0.0, 0.0, 0.0, 0.0, 0.0, 0.0, 0.0, 0.0)"
1969/12/31/19:21:15.760000,247016,1275,760000000,world,9.9999999107,1.03627949572e-07,4.03985044537,2.77818315539e-08,-8.64768091981e-10,-0.75937660143,-0.65065134842,"(0.0, 0.0, 0.0, 0.0, 0.0, 0.0, 0.0, 0.0, 0.0, 0.0, 0.0, 0.0, 0.0, 0.0, 0.0, 0.0, 0.0, 0.0, 0.0, 0.0, 0.0, 0.0, 0.0, 0.0, 0.0, 0.0, 0.0, 0.0, 0.0, 0.0, 0.0, 0.0, 0.0, 0.0, 0.0, 0.0)"
1969/12/31/19:21:15.765000,247017,1275,765000000,world,9.99999991279,1.00906024021e-07,4.03984974471,3.1713999159e-08,-1.42901801998e-09,-0.75938633667,-0.650639986228,"(0.0, 0.0, 0.0, 0.0, 0.0, 0.0, 0.0, 0.0, 0.0, 0.0, 0.0, 0.0, 0.0, 0.0, 0.0, 0.0, 0.0, 0.0, 0.0, 0.0, 0.0, 0.0, 0.0, 0.0, 0.0, 0.0, 0.0, 0.0, 0.0, 0.0, 0.0, 0.0, 0.0, 0.0, 0.0, 0.0)"
1969/12/31/19:21:15.770000,247018,1275,770000000,world,9.99999991486,9.81969865438e-08,4.03984905173,3.54946851975e-08,-2.01793214738e-09,-0.759396012062,-0.650628693545,"(0.0, 0.0, 0.0, 0.0, 0.0, 0.0, 0.0, 0.0, 0.0, 0.0, 0.0, 0.0, 0.0, 0.0, 0.0, 0.0, 0.0, 0.0, 0.0, 0.0, 0.0, 0.0, 0.0, 0.0, 0.0, 0.0, 0.0, 0.0, 0.0, 0.0, 0.0, 0.0, 0.0, 0.0, 0.0, 0.0)"
1969/12/31/19:21:15.775000,247019,1275,775000000,world,9.99999991692,9.55022525273e-08,4.03984836654,3.91201329209e-08,-2.63880038014e-09,-0.759405627855,-0.650617470087,"(0.0, 0.0, 0.0, 0.0, 0.0, 0.0, 0.0, 0.0, 0.0, 0.0, 0.0, 0.0, 0.0, 0.0, 0.0, 0.0, 0.0, 0.0, 0.0, 0.0, 0.0, 0.0, 0.0, 0.0, 0.0, 0.0, 0.0, 0.0, 0.0, 0.0, 0.0, 0.0, 0.0, 0.0, 0.0, 0.0)"
1969/12/31/19:21:15.780000,247020,1275,780000000,world,9.99999991896,9.28231981771e-08,4.03984768904,4.25877994878e-08,-3.29793253128e-09,-0.75941518424,-0.650606315636,"(0.0, 0.0, 0.0, 0.0, 0.0, 0.0, 0.0, 0.0, 0.0, 0.0, 0.0, 0.0, 0.0, 0.0, 0.0, 0.0, 0.0, 0.0, 0.0, 0.0, 0.0, 0.0, 0.0, 0.0, 0.0, 0.0, 0.0, 0.0, 0.0, 0.0, 0.0, 0.0, 0.0, 0.0, 0.0, 0.0)"
1969/12/31/19:21:15.780000,247021,1275,785000000,world,9.99999992099,9.01611623529e-08,4.039847019,4.5896276694e-08,-4.00044179512e-09,-0.759424681373,-0.650595230018,"(0.0, 0.0, 0.0, 0.0, 0.0, 0.0, 0.0, 0.0, 0.0, 0.0, 0.0, 0.0, 0.0, 0.0, 0.0, 0.0, 0.0, 0.0, 0.0, 0.0, 0.0, 0.0, 0.0, 0.0, 0.0, 0.0, 0.0, 0.0, 0.0, 0.0, 0.0, 0.0, 0.0, 0.0, 0.0, 0.0)"
1969/12/31/19:21:15.790000,247022,1275,790000000,world,9.99999992299,8.7517448375e-08,4.03984635615,4.90451155771e-08,-4.75009383384e-09,-0.75943411938,-0.65058421309,"(0.0, 0.0, 0.0, 0.0, 0.0, 0.0, 0.0, 0.0, 0.0, 0.0, 0.0, 0.0, 0.0, 0.0, 0.0, 0.0, 0.0, 0.0, 0.0, 0.0, 0.0, 0.0, 0.0, 0.0, 0.0, 0.0, 0.0, 0.0, 0.0, 0.0, 0.0, 0.0, 0.0, 0.0, 0.0, 0.0)"
1969/12/31/19:21:15.795000,247023,1275,795000000,world,9.99999992498,8.48933337819e-08,4.03984570094,5.20331690582e-08,-5.54303843689e-09,-0.759443498586,-0.65057326448,"(0.0, 0.0, 0.0, 0.0, 0.0, 0.0, 0.0, 0.0, 0.0, 0.0, 0.0, 0.0, 0.0, 0.0, 0.0, 0.0, 0.0, 0.0, 0.0, 0.0, 0.0, 0.0, 0.0, 0.0, 0.0, 0.0, 0.0, 0.0, 0.0, 0.0, 0.0, 0.0, 0.0, 0.0, 0.0, 0.0)"
1969/12/31/19:21:15.800000,247024,1275,800000000,world,9.99999992695,8.22900594471e-08,4.03984505342,5.48598258135e-08,-6.37543881835e-09,-0.759452819241,-0.650562383902,"(0.0, 0.0, 0.0, 0.0, 0.0, 0.0, 0.0, 0.0, 0.0, 0.0, 0.0, 0.0, 0.0, 0.0, 0.0, 0.0, 0.0, 0.0, 0.0, 0.0, 0.0, 0.0, 0.0, 0.0, 0.0, 0.0, 0.0, 0.0, 0.0, 0.0, 0.0, 0.0, 0.0, 0.0, 0.0, 0.0)"
1969/12/31/19:21:15.805000,247025,1275,805000000,world,9.9999999289,7.97088265266e-08,4.03984441388,5.75195822527e-08,-7.24953856343e-09,-0.759462081673,-0.650551570978,"(0.0, 0.0, 0.0, 0.0, 0.0, 0.0, 0.0, 0.0, 0.0, 0.0, 0.0, 0.0, 0.0, 0.0, 0.0, 0.0, 0.0, 0.0, 0.0, 0.0, 0.0, 0.0, 0.0, 0.0, 0.0, 0.0, 0.0, 0.0, 0.0, 0.0, 0.0, 0.0, 0.0, 0.0, 0.0, 0.0)"
1969/12/31/19:21:15.810000,247026,1275,810000000,world,9.99999993083,7.71507974243e-08,4.0398437823,6.00077016699e-08,-8.16698230254e-09,-0.759471286134,-0.65054082542,"(0.0, 0.0, 0.0, 0.0, 0.0, 0.0, 0.0, 0.0, 0.0, 0.0, 0.0, 0.0, 0.0, 0.0, 0.0, 0.0, 0.0, 0.0, 0.0, 0.0, 0.0, 0.0, 0.0, 0.0, 0.0, 0.0, 0.0, 0.0, 0.0, 0.0, 0.0, 0.0, 0.0, 0.0, 0.0, 0.0)"
1969/12/31/19:21:15.820000,247027,1275,815000000,world,9.99999993274,7.46170995203e-08,4.03984315873,6.23340922535e-08,-9.11272397061e-09,-0.759480432913,-0.650530146897,"(0.0, 0.0, 0.0, 0.0, 0.0, 0.0, 0.0, 0.0, 0.0, 0.0, 0.0, 0.0, 0.0, 0.0, 0.0, 0.0, 0.0, 0.0, 0.0, 0.0, 0.0, 0.0, 0.0, 0.0, 0.0, 0.0, 0.0, 0.0, 0.0, 0.0, 0.0, 0.0, 0.0, 0.0, 0.0, 0.0)"
1969/12/31/19:21:15.820000,247028,1275,820000000,world,9.99999993462,7.21088166035e-08,4.03984254315,6.45051481654e-08,-1.0076474488e-08,-0.759489522278,-0.650519535103,"(0.0, 0.0, 0.0, 0.0, 0.0, 0.0, 0.0, 0.0, 0.0, 0.0, 0.0, 0.0, 0.0, 0.0, 0.0, 0.0, 0.0, 0.0, 0.0, 0.0, 0.0, 0.0, 0.0, 0.0, 0.0, 0.0, 0.0, 0.0, 0.0, 0.0, 0.0, 0.0, 0.0, 0.0, 0.0, 0.0)"
1969/12/31/19:21:15.825000,247029,1275,825000000,world,9.99999993649,6.96269872901e-08,4.03984193533,6.65249590449e-08,-1.10514263169e-08,-0.759498554438,-0.650508989797,"(0.0, 0.0, 0.0, 0.0, 0.0, 0.0, 0.0, 0.0, 0.0, 0.0, 0.0, 0.0, 0.0, 0.0, 0.0, 0.0, 0.0, 0.0, 0.0, 0.0, 0.0, 0.0, 0.0, 0.0, 0.0, 0.0, 0.0, 0.0, 0.0, 0.0, 0.0, 0.0, 0.0, 0.0, 0.0, 0.0)"
1969/12/31/19:21:15.835000,247030,1275,830000000,world,9.99999993832,6.71726040596e-08,4.03984133494,6.83962156547e-08,-1.20332082983e-08,-0.759507529561,-0.650498510791,"(0.0, 0.0, 0.0, 0.0, 0.0, 0.0, 0.0, 0.0, 0.0, 0.0, 0.0, 0.0, 0.0, 0.0, 0.0, 0.0, 0.0, 0.0, 0.0, 0.0, 0.0, 0.0, 0.0, 0.0, 0.0, 0.0, 0.0, 0.0, 0.0, 0.0, 0.0, 0.0, 0.0, 0.0, 0.0, 0.0)"
1969/12/31/19:21:15.835000,247031,1275,835000000,world,9.99999994014,6.47466128226e-08,4.03984074162,7.01208526486e-08,-1.30190044342e-08,-0.759516447782,-0.65048809793,"(0.0, 0.0, 0.0, 0.0, 0.0, 0.0, 0.0, 0.0, 0.0, 0.0, 0.0, 0.0, 0.0, 0.0, 0.0, 0.0, 0.0, 0.0, 0.0, 0.0, 0.0, 0.0, 0.0, 0.0, 0.0, 0.0, 0.0, 0.0, 0.0, 0.0, 0.0, 0.0, 0.0, 0.0, 0.0, 0.0)"
1969/12/31/19:21:15.840000,247032,1275,840000000,world,9.99999994193,6.23499013009e-08,4.03984015546,7.17120840301e-08,-1.40075204596e-08,-0.759525309349,-0.650477750932,"(0.0, 0.0, 0.0, 0.0, 0.0, 0.0, 0.0, 0.0, 0.0, 0.0, 0.0, 0.0, 0.0, 0.0, 0.0, 0.0, 0.0, 0.0, 0.0, 0.0, 0.0, 0.0, 0.0, 0.0, 0.0, 0.0, 0.0, 0.0, 0.0, 0.0, 0.0, 0.0, 0.0, 0.0, 0.0, 0.0)"
1969/12/31/19:21:15.845000,247033,1275,845000000,world,9.9999999437,5.99833179719e-08,4.03983957632,7.31790995856e-08,-1.4997581929e-08,-0.759534114457,-0.650467469576,"(0.0, 0.0, 0.0, 0.0, 0.0, 0.0, 0.0, 0.0, 0.0, 0.0, 0.0, 0.0, 0.0, 0.0, 0.0, 0.0, 0.0, 0.0, 0.0, 0.0, 0.0, 0.0, 0.0, 0.0, 0.0, 0.0, 0.0, 0.0, 0.0, 0.0, 0.0, 0.0, 0.0, 0.0, 0.0, 0.0)"
1969/12/31/19:21:15.850000,247034,1275,850000000,world,9.99999994545,5.76476737548e-08,4.03983900397,7.4528358596e-08,-1.59879244345e-08,-0.759542863258,-0.650457253687,"(0.0, 0.0, 0.0, 0.0, 0.0, 0.0, 0.0, 0.0, 0.0, 0.0, 0.0, 0.0, 0.0, 0.0, 0.0, 0.0, 0.0, 0.0, 0.0, 0.0, 0.0, 0.0, 0.0, 0.0, 0.0, 0.0, 0.0, 0.0, 0.0, 0.0, 0.0, 0.0, 0.0, 0.0, 0.0, 0.0)"
1969/12/31/19:21:15.855000,247035,1275,855000000,world,9.99999994717,5.53437430627e-08,4.03983843813,7.57643790824e-08,-1.69771548423e-08,-0.759551555878,-0.650447103124,"(0.0, 0.0, 0.0, 0.0, 0.0, 0.0, 0.0, 0.0, 0.0, 0.0, 0.0, 0.0, 0.0, 0.0, 0.0, 0.0, 0.0, 0.0, 0.0, 0.0, 0.0, 0.0, 0.0, 0.0, 0.0, 0.0, 0.0, 0.0, 0.0, 0.0, 0.0, 0.0, 0.0, 0.0, 0.0, 0.0)"
1969/12/31/19:21:15.860000,247036,1275,860000000,world,9.99999994886,5.3072280817e-08,4.03983787893,7.68927770797e-08,-1.7946560948e-08,-0.759560192557,-0.650437017614,"(0.0, 0.0, 0.0, 0.0, 0.0, 0.0, 0.0, 0.0, 0.0, 0.0, 0.0, 0.0, 0.0, 0.0, 0.0, 0.0, 0.0, 0.0, 0.0, 0.0, 0.0, 0.0, 0.0, 0.0, 0.0, 0.0, 0.0, 0.0, 0.0, 0.0, 0.0, 0.0, 0.0, 0.0, 0.0, 0.0)"
1969/12/31/19:21:15.860000,247037,1275,865000000,world,9.99999995053,5.08339959728e-08,4.0398373263,7.79179482182e-08,-1.88824156815e-08,-0.759568773481,-0.650426996944,"(0.0, 0.0, 0.0, 0.0, 0.0, 0.0, 0.0, 0.0, 0.0, 0.0, 0.0, 0.0, 0.0, 0.0, 0.0, 0.0, 0.0, 0.0, 0.0, 0.0, 0.0, 0.0, 0.0, 0.0, 0.0, 0.0, 0.0, 0.0, 0.0, 0.0, 0.0, 0.0, 0.0, 0.0, 0.0, 0.0)"
1969/12/31/19:21:15.870000,247038,1275,870000000,world,9.99999995218,4.86295458785e-08,4.03983678049,7.8834141991e-08,-1.97853961325e-08,-0.759577298932,-0.650417040788,"(0.0, 0.0, 0.0, 0.0, 0.0, 0.0, 0.0, 0.0, 0.0, 0.0, 0.0, 0.0, 0.0, 0.0, 0.0, 0.0, 0.0, 0.0, 0.0, 0.0, 0.0, 0.0, 0.0, 0.0, 0.0, 0.0, 0.0, 0.0, 0.0, 0.0, 0.0, 0.0, 0.0, 0.0, 0.0, 0.0)"
1969/12/31/19:21:15.875000,247039,1275,875000000,world,9.9999999538,4.64595392669e-08,4.03983624146,7.96378194074e-08,-2.06554859541e-08,-0.759585769129,-0.650407148898,"(0.0, 0.0, 0.0, 0.0, 0.0, 0.0, 0.0, 0.0, 0.0, 0.0, 0.0, 0.0, 0.0, 0.0, 0.0, 0.0, 0.0, 0.0, 0.0, 0.0, 0.0, 0.0, 0.0, 0.0, 0.0, 0.0, 0.0, 0.0, 0.0, 0.0, 0.0, 0.0, 0.0, 0.0, 0.0, 0.0)"
