time,.header.seq,.header.stamp.secs,.header.stamp.nsecs,.header.frame_id,.orientation.x,.orientation.y,.orientation.z,.orientation.w,.orientation_covariance,.angular_velocity.x,.angular_velocity.y,.angular_velocity.z,.angular_velocity_covariance,.linear_acceleration.x,.linear_acceleration.y,.linear_acceleration.z,.linear_acceleration_covariance
1969/12/31/19:21:14.995000,247338,1274,995000000,firefly/imugt_link,1.03760131053e-07,-3.64133657191e-08,-0.757074845068,-0.65332815565,"(-1.0, -1.0, -1.0, -1.0, -1.0, -1.0, -1.0, -1.0, -1.0)",0.000451131765279,4.65272246534e-05,0.0113804504771,"(0.0, 0.0, 0.0, 0.0, 0.0, 0.0, 0.0, 0.0, 0.0)",-2.10224958196e-08,-2.0423888646e-08,9.80003165675,"(0.0, 0.0, 0.0, 0.0, 0.0, 0.0, 0.0, 0.0, 0.0)"
1969/12/31/19:21:15.005000,247339,1275,0,firefly/imugt_link,1.0071338065e-07,-3.55445241699e-08,-0.757095602088,-0.653304101701,"(-1.0, -1.0, -1.0, -1.0, -1.0, -1.0, -1.0, -1.0, -1.0)",0.000448534053784,4.69167536601e-05,0.0113336436459,"(0.0, 0.0, 0.0, 0.0, 0.0, 0.0, 0.0, 0.0, 0.0)",-1.49745789304e-08,-1.60716897745e-08,9.80002510825,"(0.0, 0.0, 0.0, 0.0, 0.0, 0.0, 0.0, 0.0, 0.0)"
1969/12/31/19:21:15.010000,247340,1275,5000000,firefly/imugt_link,9.72680967757e-08,-3.4616301632e-08,-0.757116281881,-0.653280135708,"(-1.0, -1.0, -1.0, -1.0, -1.0, -1.0, -1.0, -1.0, -1.0)",0.000449497737643,4.39979306894e-05,0.0112848635141,"(0.0, 0.0, 0.0, 0.0, 0.0, 0.0, 0.0, 0.0, 0.0)",-8.92783608185e-09,-1.17089189145e-08,9.80001764705,"(0.0, 0.0, 0.0, 0.0, 0.0, 0.0, 0.0, 0.0, 0.0)"
1969/12/31/19:21:15.015000,247341,1275,10000000,firefly/imugt_link,9.34440527448e-08,-3.36369924322e-08,-0.757136884314,-0.653256257843,"(-1.0, -1.0, -1.0, -1.0, -1.0, -1.0, -1.0, -1.0, -1.0)",0.000444238458767,4.33433410543e-05,0.0112405311669,"(0.0, 0.0, 0.0, 0.0, 0.0, 0.0, 0.0, 0.0, 0.0)",-4.37967547602e-09,-7.90678140501e-09,9.80003858827,"(0.0, 0.0, 0.0, 0.0, 0.0, 0.0, 0.0, 0.0, 0.0)"
1969/12/31/19:21:15.020000,247342,1275,15000000,firefly/imugt_link,8.92561692497e-08,-3.26126777611e-08,-0.757157409302,-0.653232468221,"(-1.0, -1.0, -1.0, -1.0, -1.0, -1.0, -1.0, -1.0, -1.0)",0.000446192713473,3.9495727227e-05,0.0111954874047,"(0.0, 0.0, 0.0, 0.0, 0.0, 0.0, 0.0, 0.0, 0.0)",1.35954406144e-10,-4.13604976568e-09,9.80004725519,"(0.0, 0.0, 0.0, 0.0, 0.0, 0.0, 0.0, 0.0, 0.0)"
1969/12/31/19:21:15.020000,247343,1275,20000000,firefly/imugt_link,8.47159243638e-08,-3.1547488497e-08,-0.757177856801,-0.653208766912,"(-1.0, -1.0, -1.0, -1.0, -1.0, -1.0, -1.0, -1.0, -1.0)",0.000445389892937,4.10400429549e-05,0.0111483132175,"(0.0, 0.0, 0.0, 0.0, 0.0, 0.0, 0.0, 0.0, 0.0)",4.64181970446e-09,-4.14124131185e-10,9.80004866776,"(0.0, 0.0, 0.0, 0.0, 0.0, 0.0, 0.0, 0.0, 0.0)"
1969/12/31/19:21:15.025000,247344,1275,25000000,firefly/imugt_link,7.98321338571e-08,-3.04440532433e-08,-0.757198226789,-0.653185153956,"(-1.0, -1.0, -1.0, -1.0, -1.0, -1.0, -1.0, -1.0, -1.0)",0.000444326140749,4.49341947743e-05,0.0111017410261,"(0.0, 0.0, 0.0, 0.0, 0.0, 0.0, 0.0, 0.0, 0.0)",9.16310547217e-09,3.26833094237e-09,9.80004601463,"(0.0, 0.0, 0.0, 0.0, 0.0, 0.0, 0.0, 0.0, 0.0)"
1969/12/31/19:21:15.030000,247345,1275,30000000,firefly/imugt_link,7.46346684229e-08,-2.93055591484e-08,-0.757218519187,-0.653161629461,"(-1.0, -1.0, -1.0, -1.0, -1.0, -1.0, -1.0, -1.0, -1.0)",0.000440370242046,4.01777773739e-05,0.0110587393801,"(0.0, 0.0, 0.0, 0.0, 0.0, 0.0, 0.0, 0.0, 0.0)",1.22841405625e-08,5.86175412818e-09,9.80005659101,"(0.0, 0.0, 0.0, 0.0, 0.0, 0.0, 0.0, 0.0, 0.0)"
1969/12/31/19:21:15.035000,247346,1275,35000000,firefly/imugt_link,6.91500249655e-08,-2.81349109121e-08,-0.75723873393,-0.653138193521,"(-1.0, -1.0, -1.0, -1.0, -1.0, -1.0, -1.0, -1.0, -1.0)",0.000440855980545,4.00941821163e-05,0.0110090320934,"(0.0, 0.0, 0.0, 0.0, 0.0, 0.0, 0.0, 0.0, 0.0)",1.51180984957e-08,8.24839806177e-09,9.80006442347,"(0.0, 0.0, 0.0, 0.0, 0.0, 0.0, 0.0, 0.0, 0.0)"
1969/12/31/19:21:15.035000,247347,1275,40000000,firefly/imugt_link,6.34121847807e-08,-2.69246860597e-08,-0.757258870959,-0.653114846221,"(-1.0, -1.0, -1.0, -1.0, -1.0, -1.0, -1.0, -1.0, -1.0)",0.000442433814846,3.72926746482e-05,0.0109591143454,"(0.0, 0.0, 0.0, 0.0, 0.0, 0.0, 0.0, 0.0, 0.0)",1.75991522915e-08,9.34296367848e-09,9.80007059407,"(0.0, 0.0, 0.0, 0.0, 0.0, 0.0, 0.0, 0.0, 0.0)"
1969/12/31/19:21:15.045000,247348,1275,45000000,firefly/imugt_link,5.74475936768e-08,-2.56827228195e-08,-0.757278930182,-0.653091587683,"(-1.0, -1.0, -1.0, -1.0, -1.0, -1.0, -1.0, -1.0, -1.0)",0.000444927528209,3.87079423473e-05,0.0109084453393,"(0.0, 0.0, 0.0, 0.0, 0.0, 0.0, 0.0, 0.0, 0.0)",1.93510765243e-08,1.11147786638e-08,9.80008419445,"(0.0, 0.0, 0.0, 0.0, 0.0, 0.0, 0.0, 0.0, 0.0)"
1969/12/31/19:21:15.060000,247349,1275,50000000,firefly/imugt_link,5.12750384618e-08,-2.44157498443e-08,-0.757298911547,-0.653068417986,"(-1.0, -1.0, -1.0, -1.0, -1.0, -1.0, -1.0, -1.0, -1.0)",0.000442316578926,3.56925726914e-05,0.0108598370731,"(0.0, 0.0, 0.0, 0.0, 0.0, 0.0, 0.0, 0.0, 0.0)",2.11128466555e-08,1.29828157752e-08,9.80008894807,"(0.0, 0.0, 0.0, 0.0, 0.0, 0.0, 0.0, 0.0, 0.0)"
1969/12/31/19:21:15.060000,247350,1275,55000000,firefly/imugt_link,4.49082698421e-08,-2.31295062463e-08,-0.757318815029,-0.653045337173,"(-1.0, -1.0, -1.0, -1.0, -1.0, -1.0, -1.0, -1.0, -1.0)",0.000443787213092,3.25490422896e-05,0.0108138958004,"(0.0, 0.0, 0.0, 0.0, 0.0, 0.0, 0.0, 0.0, 0.0)",2.28760494155e-08,1.49214654522e-08,9.80008856236,"(0.0, 0.0, 0.0, 0.0, 0.0, 0.0, 0.0, 0.0, 0.0)"
1969/12/31/19:21:15.060000,247351,1275,60000000,firefly/imugt_link,3.83579072356e-08,-2.18285304897e-08,-0.757338640626,-0.653022345265,"(-1.0, -1.0, -1.0, -1.0, -1.0, -1.0, -1.0, -1.0, -1.0)",0.000445775366139,3.33005831229e-05,0.0107679694131,"(0.0, 0.0, 0.0, 0.0, 0.0, 0.0, 0.0, 0.0, 0.0)",2.46461548112e-08,1.68856630794e-08,9.80008537915,"(0.0, 0.0, 0.0, 0.0, 0.0, 0.0, 0.0, 0.0, 0.0)"
1969/12/31/19:21:15.065000,247352,1275,65000000,firefly/imugt_link,3.16327071082e-08,-2.05158633416e-08,-0.757358388347,-0.652999442266,"(-1.0, -1.0, -1.0, -1.0, -1.0, -1.0, -1.0, -1.0, -1.0)",0.00044632276752,3.3070335847e-05,0.010719197193,"(0.0, 0.0, 0.0, 0.0, 0.0, 0.0, 0.0, 0.0, 0.0)",2.64411430542e-08,1.88252654289e-08,9.80008085087,"(0.0, 0.0, 0.0, 0.0, 0.0, 0.0, 0.0, 0.0, 0.0)"
1969/12/31/19:21:15.070000,247353,1275,70000000,firefly/imugt_link,2.47402606072e-08,-1.9192883288e-08,-0.757378058215,-0.652976628168,"(-1.0, -1.0, -1.0, -1.0, -1.0, -1.0, -1.0, -1.0, -1.0)",0.000445823818729,3.28891733339e-05,0.0106677611947,"(0.0, 0.0, 0.0, 0.0, 0.0, 0.0, 0.0, 0.0, 0.0)",2.82881589202e-08,2.07023427228e-08,9.800075855,"(0.0, 0.0, 0.0, 0.0, 0.0, 0.0, 0.0, 0.0, 0.0)"
1969/12/31/19:21:15.080000,247354,1275,75000000,firefly/imugt_link,1.7720922716e-08,-1.78502496618e-08,-0.757397650186,-0.652953903038,"(-1.0, -1.0, -1.0, -1.0, -1.0, -1.0, -1.0, -1.0, -1.0)",0.000444388543628,3.10899773134e-05,0.0106200900283,"(0.0, 0.0, 0.0, 0.0, 0.0, 0.0, 0.0, 0.0, 0.0)",2.8706483105e-08,2.02778960434e-08,9.80008668413,"(0.0, 0.0, 0.0, 0.0, 0.0, 0.0, 0.0, 0.0, 0.0)"
1969/12/31/19:21:15.080000,247355,1275,80000000,firefly/imugt_link,1.06047645413e-08,-1.64806096026e-08,-0.757417164244,-0.65293126691,"(-1.0, -1.0, -1.0, -1.0, -1.0, -1.0, -1.0, -1.0, -1.0)",0.00044520298009,3.00164560499e-05,0.0105707587351,"(0.0, 0.0, 0.0, 0.0, 0.0, 0.0, 0.0, 0.0, 0.0)",2.91812565001e-08,1.97955408161e-08,9.80009114079,"(0.0, 0.0, 0.0, 0.0, 0.0, 0.0, 0.0, 0.0, 0.0)"
1969/12/31/19:21:15.095000,247356,1275,85000000,firefly/imugt_link,3.41395766961e-09,-1.50782710906e-08,-0.75743660039,-0.652908719799,"(-1.0, -1.0, -1.0, -1.0, -1.0, -1.0, -1.0, -1.0, -1.0)",0.000444691171308,2.78361179618e-05,0.0105221261667,"(0.0, 0.0, 0.0, 0.0, 0.0, 0.0, 0.0, 0.0, 0.0)",2.97342381647e-08,1.92965933155e-08,9.80009183378,"(0.0, 0.0, 0.0, 0.0, 0.0, 0.0, 0.0, 0.0, 0.0)"
1969/12/31/19:21:15.095000,247358,1275,95000000,firefly/imugt_link,-1.11327819885e-08,-1.21616150713e-08,-0.757475239022,-0.652863892606,"(-1.0, -1.0, -1.0, -1.0, -1.0, -1.0, -1.0, -1.0, -1.0)",0.00044308442625,2.85166883983e-05,0.0104195454849,"(0.0, 0.0, 0.0, 0.0, 0.0, 0.0, 0.0, 0.0, 0.0)",3.11022976405e-08,1.85095247952e-08,9.80008793401,"(0.0, 0.0, 0.0, 0.0, 0.0, 0.0, 0.0, 0.0, 0.0)"
1969/12/31/19:21:15.100000,247359,1275,100000000,firefly/imugt_link,-1.8470311767e-08,-1.06450987699e-08,-0.757494441567,-0.652841612488,"(-1.0, -1.0, -1.0, -1.0, -1.0, -1.0, -1.0, -1.0, -1.0)",0.00044056534686,3.16137614145e-05,0.01036908383,"(0.0, 0.0, 0.0, 0.0, 0.0, 0.0, 0.0, 0.0, 0.0)",3.19005545765e-08,1.8328900347e-08,9.80008500853,"(0.0, 0.0, 0.0, 0.0, 0.0, 0.0, 0.0, 0.0, 0.0)"
1969/12/31/19:21:15.105000,247360,1275,105000000,firefly/imugt_link,-2.58432320327e-08,-9.09113754566e-09,-0.757513566313,-0.652819421319,"(-1.0, -1.0, -1.0, -1.0, -1.0, -1.0, -1.0, -1.0, -1.0)",0.000446981997466,2.96782943002e-05,0.0103164689655,"(0.0, 0.0, 0.0, 0.0, 0.0, 0.0, 0.0, 0.0, 0.0)",3.27537786103e-08,1.83132173982e-08,9.80008201657,"(0.0, 0.0, 0.0, 0.0, 0.0, 0.0, 0.0, 0.0, 0.0)"
1969/12/31/19:21:15.115000,247361,1275,110000000,firefly/imugt_link,-3.32210818122e-08,-7.51506552451e-09,-0.75753261322,-0.652797319164,"(-1.0, -1.0, -1.0, -1.0, -1.0, -1.0, -1.0, -1.0, -1.0)",0.000445705570606,2.95756590073e-05,0.0102678655197,"(0.0, 0.0, 0.0, 0.0, 0.0, 0.0, 0.0, 0.0, 0.0)",3.14251178155e-08,1.78486237469e-08,9.80009815231,"(0.0, 0.0, 0.0, 0.0, 0.0, 0.0, 0.0, 0.0, 0.0)"
1969/12/31/19:21:15.115000,247362,1275,115000000,firefly/imugt_link,-4.05807630872e-08,-5.92812407836e-09,-0.757551582274,-0.652775306054,"(-1.0, -1.0, -1.0, -1.0, -1.0, -1.0, -1.0, -1.0, -1.0)",0.000445050197532,3.11405311466e-05,0.0102231003607,"(0.0, 0.0, 0.0, 0.0, 0.0, 0.0, 0.0, 0.0, 0.0)",3.01075871443e-08,1.73949815114e-08,9.80010667091,"(0.0, 0.0, 0.0, 0.0, 0.0, 0.0, 0.0, 0.0, 0.0)"
1969/12/31/19:21:15.125000,247363,1275,120000000,firefly/imugt_link,-4.78923537582e-08,-4.33874265833e-09,-0.75757047346,-0.652753382023,"(-1.0, -1.0, -1.0, -1.0, -1.0, -1.0, -1.0, -1.0, -1.0)",0.000443303795986,2.97861024445e-05,0.0101758846121,"(0.0, 0.0, 0.0, 0.0, 0.0, 0.0, 0.0, 0.0, 0.0)",2.8086530436e-08,1.63538937614e-08,9.80011578677,"(0.0, 0.0, 0.0, 0.0, 0.0, 0.0, 0.0, 0.0, 0.0)"
1969/12/31/19:21:15.130000,247364,1275,125000000,firefly/imugt_link,-5.51330505617e-08,-2.75190540075e-09,-0.757589286779,-0.652731547083,"(-1.0, -1.0, -1.0, -1.0, -1.0, -1.0, -1.0, -1.0, -1.0)",0.000442228118343,3.46444223498e-05,0.0101278411822,"(0.0, 0.0, 0.0, 0.0, 0.0, 0.0, 0.0, 0.0, 0.0)",2.61329555863e-08,1.52398550246e-08,9.80011997284,"(0.0, 0.0, 0.0, 0.0, 0.0, 0.0, 0.0, 0.0, 0.0)"
1969/12/31/19:21:15.130000,247365,1275,130000000,firefly/imugt_link,-6.22851295998e-08,-1.16973550701e-09,-0.75760802225,-0.652709801231,"(-1.0, -1.0, -1.0, -1.0, -1.0, -1.0, -1.0, -1.0, -1.0)",0.000445158480807,2.92831737571e-05,0.0100820095112,"(0.0, 0.0, 0.0, 0.0, 0.0, 0.0, 0.0, 0.0, 0.0)",2.42675607411e-08,1.40288040183e-08,9.80012120321,"(0.0, 0.0, 0.0, 0.0, 0.0, 0.0, 0.0, 0.0, 0.0)"
1969/12/31/19:21:15.135000,247366,1275,135000000,firefly/imugt_link,-6.93348420309e-08,4.07710088644e-10,-0.757626679899,-0.652688144449,"(-1.0, -1.0, -1.0, -1.0, -1.0, -1.0, -1.0, -1.0, -1.0)",0.000445449988482,2.89187324158e-05,0.0100383978261,"(0.0, 0.0, 0.0, 0.0, 0.0, 0.0, 0.0, 0.0, 0.0)",2.2514082649e-08,1.27360294903e-08,9.80012073792,"(0.0, 0.0, 0.0, 0.0, 0.0, 0.0, 0.0, 0.0, 0.0)"
1969/12/31/19:21:15.140000,247367,1275,140000000,firefly/imugt_link,-7.6247378769e-08,1.97998091122e-09,-0.757645259715,-0.652666576768,"(-1.0, -1.0, -1.0, -1.0, -1.0, -1.0, -1.0, -1.0, -1.0)",0.000445194951409,2.91264468883e-05,0.00999516542862,"(0.0, 0.0, 0.0, 0.0, 0.0, 0.0, 0.0, 0.0, 0.0)",1.93831608561e-08,1.02731358905e-08,9.80013297639,"(0.0, 0.0, 0.0, 0.0, 0.0, 0.0, 0.0, 0.0, 0.0)"
1969/12/31/19:21:15.145000,247368,1275,145000000,firefly/imugt_link,-8.29971674755e-08,3.54711947048e-09,-0.757663761705,-0.652645098195,"(-1.0, -1.0, -1.0, -1.0, -1.0, -1.0, -1.0, -1.0, -1.0)",0.000447290764717,3.19819546668e-05,0.00994720525832,"(0.0, 0.0, 0.0, 0.0, 0.0, 0.0, 0.0, 0.0, 0.0)",1.6328986932e-08,7.80436304824e-09,9.80013965504,"(0.0, 0.0, 0.0, 0.0, 0.0, 0.0, 0.0, 0.0, 0.0)"
1969/12/31/19:21:15.150000,247369,1275,150000000,firefly/imugt_link,-8.95657693893e-08,5.10874000005e-09,-0.75768218589,-0.652623708722,"(-1.0, -1.0, -1.0, -1.0, -1.0, -1.0, -1.0, -1.0, -1.0)",0.000442451364452,3.01630757742e-05,0.00990353236245,"(0.0, 0.0, 0.0, 0.0, 0.0, 0.0, 0.0, 0.0, 0.0)",1.33425577472e-08,5.40062726768e-09,9.80014288326,"(0.0, 0.0, 0.0, 0.0, 0.0, 0.0, 0.0, 0.0, 0.0)"
1969/12/31/19:21:15.155000,247370,1275,155000000,firefly/imugt_link,-9.5940092696e-08,6.66352261746e-09,-0.757700532298,-0.652602408328,"(-1.0, -1.0, -1.0, -1.0, -1.0, -1.0, -1.0, -1.0, -1.0)",0.000442608577216,2.53382797582e-05,0.00985851644095,"(0.0, 0.0, 0.0, 0.0, 0.0, 0.0, 0.0, 0.0, 0.0)",1.04073699729e-08,3.11155789887e-09,9.8001440249,"(0.0, 0.0, 0.0, 0.0, 0.0, 0.0, 0.0, 0.0, 0.0)"
1969/12/31/19:21:15.155000,247371,1275,160000000,firefly/imugt_link,-1.02102952554e-07,8.22614890664e-09,-0.75771880095,-0.652581197007,"(-1.0, -1.0, -1.0, -1.0, -1.0, -1.0, -1.0, -1.0, -1.0)",0.000438538284888,2.53216069049e-05,0.00980996166695,"(0.0, 0.0, 0.0, 0.0, 0.0, 0.0, 0.0, 0.0, 0.0)",7.897138507e-09,-4.3459798538e-10,9.80015045047,"(0.0, 0.0, 0.0, 0.0, 0.0, 0.0, 0.0, 0.0, 0.0)"
1969/12/31/19:21:15.165000,247372,1275,165000000,firefly/imugt_link,-1.08038533125e-07,9.78833150047e-09,-0.757736991875,-0.652560074739,"(-1.0, -1.0, -1.0, -1.0, -1.0, -1.0, -1.0, -1.0, -1.0)",0.000437617034341,2.41105788206e-05,0.00976409755971,"(0.0, 0.0, 0.0, 0.0, 0.0, 0.0, 0.0, 0.0, 0.0)",4.34042541695e-09,-3.01464197915e-09,9.80015646375,"(0.0, 0.0, 0.0, 0.0, 0.0, 0.0, 0.0, 0.0, 0.0)"
1969/12/31/19:21:15.170000,247373,1275,170000000,firefly/imugt_link,-1.1373515636e-07,1.13434392973e-08,-0.757755105107,-0.652539041502,"(-1.0, -1.0, -1.0, -1.0, -1.0, -1.0, -1.0, -1.0, -1.0)",0.000435232652656,2.54510872841e-05,0.00971210418877,"(0.0, 0.0, 0.0, 0.0, 0.0, 0.0, 0.0, 0.0, 0.0)",8.2187672921e-10,-5.52570776533e-09,9.80016107337,"(0.0, 0.0, 0.0, 0.0, 0.0, 0.0, 0.0, 0.0, 0.0)"
1969/12/31/19:21:15.175000,247374,1275,175000000,firefly/imugt_link,-1.1918361827e-07,1.28866587911e-08,-0.757773140686,-0.652518097262,"(-1.0, -1.0, -1.0, -1.0, -1.0, -1.0, -1.0, -1.0, -1.0)",0.000434115061848,2.70747849919e-05,0.00966633358735,"(0.0, 0.0, 0.0, 0.0, 0.0, 0.0, 0.0, 0.0, 0.0)",-2.65757704457e-09,-8.02809207938e-09,9.80016377479,"(0.0, 0.0, 0.0, 0.0, 0.0, 0.0, 0.0, 0.0, 0.0)"
1969/12/31/19:21:15.180000,247375,1275,180000000,firefly/imugt_link,-1.24376240327e-07,1.44151073385e-08,-0.757791098658,-0.652497241982,"(-1.0, -1.0, -1.0, -1.0, -1.0, -1.0, -1.0, -1.0, -1.0)",0.000437236138532,3.15999100039e-05,0.00961811560513,"(0.0, 0.0, 0.0, 0.0, 0.0, 0.0, 0.0, 0.0, 0.0)",-6.08227072181e-09,-1.05707639905e-08,9.80016622875,"(0.0, 0.0, 0.0, 0.0, 0.0, 0.0, 0.0, 0.0, 0.0)"
1969/12/31/19:21:15.185000,247376,1275,185000000,firefly/imugt_link,-1.29306477138e-07,1.59277119956e-08,-0.75780897907,-0.652476475622,"(-1.0, -1.0, -1.0, -1.0, -1.0, -1.0, -1.0, -1.0, -1.0)",0.00044423717508,3.39555438796e-05,0.00957093389773,"(0.0, 0.0, 0.0, 0.0, 0.0, 0.0, 0.0, 0.0, 0.0)",-9.4299518115e-09,-1.31784089567e-08,9.80016770196,"(0.0, 0.0, 0.0, 0.0, 0.0, 0.0, 0.0, 0.0, 0.0)"
1969/12/31/19:21:15.190000,247377,1275,190000000,firefly/imugt_link,-1.33968887918e-07,1.74247992636e-08,-0.757826781973,-0.652455798138,"(-1.0, -1.0, -1.0, -1.0, -1.0, -1.0, -1.0, -1.0, -1.0)",0.00044245648875,3.36707252589e-05,0.00952474580305,"(0.0, 0.0, 0.0, 0.0, 0.0, 0.0, 0.0, 0.0, 0.0)",-1.26800529206e-08,-1.58451430387e-08,9.80016914658,"(0.0, 0.0, 0.0, 0.0, 0.0, 0.0, 0.0, 0.0, 0.0)"
1969/12/31/19:21:15.195000,247378,1275,195000000,firefly/imugt_link,-1.38359264377e-07,1.89074648754e-08,-0.75784450742,-0.652435209484,"(-1.0, -1.0, -1.0, -1.0, -1.0, -1.0, -1.0, -1.0, -1.0)",0.000440992883183,3.48476388968e-05,0.00947681227428,"(0.0, 0.0, 0.0, 0.0, 0.0, 0.0, 0.0, 0.0, 0.0)",-1.58204613744e-08,-1.85380525349e-08,9.80017008853,"(0.0, 0.0, 0.0, 0.0, 0.0, 0.0, 0.0, 0.0, 0.0)"
1969/12/31/19:21:15.200000,247379,1275,200000000,firefly/imugt_link,-1.4247364664e-07,2.03766881002e-08,-0.757862155478,-0.652414709594,"(-1.0, -1.0, -1.0, -1.0, -1.0, -1.0, -1.0, -1.0, -1.0)",0.000443891997036,3.169180321e-05,0.00942701484826,"(0.0, 0.0, 0.0, 0.0, 0.0, 0.0, 0.0, 0.0, 0.0)",-1.89241913871e-08,-2.12526796511e-08,9.80017615759,"(0.0, 0.0, 0.0, 0.0, 0.0, 0.0, 0.0, 0.0, 0.0)"
1969/12/31/19:21:15.210000,247380,1275,205000000,firefly/imugt_link,-1.46309897616e-07,2.18330332759e-08,-0.757879726213,-0.652394298408,"(-1.0, -1.0, -1.0, -1.0, -1.0, -1.0, -1.0, -1.0, -1.0)",0.000444220929404,2.9845616031e-05,0.00938348902762,"(0.0, 0.0, 0.0, 0.0, 0.0, 0.0, 0.0, 0.0, 0.0)",-2.1914999417e-08,-2.38907567159e-08,9.80018013696,"(0.0, 0.0, 0.0, 0.0, 0.0, 0.0, 0.0, 0.0, 0.0)"
1969/12/31/19:21:15.210000,247381,1275,210000000,firefly/imugt_link,-1.49867225069e-07,2.32762857105e-08,-0.757897219686,-0.65237397587,"(-1.0, -1.0, -1.0, -1.0, -1.0, -1.0, -1.0, -1.0, -1.0)",0.000439188615213,2.97040478514e-05,0.00933813386474,"(0.0, 0.0, 0.0, 0.0, 0.0, 0.0, 0.0, 0.0, 0.0)",-2.48180463554e-08,-2.64247963622e-08,9.80018273168,"(0.0, 0.0, 0.0, 0.0, 0.0, 0.0, 0.0, 0.0, 0.0)"
1969/12/31/19:21:15.215000,247382,1275,215000000,firefly/imugt_link,-1.53145631277e-07,2.47054237027e-08,-0.757914635956,-0.652353741925,"(-1.0, -1.0, -1.0, -1.0, -1.0, -1.0, -1.0, -1.0, -1.0)",0.000435327393791,3.04101113707e-05,0.00928996113977,"(0.0, 0.0, 0.0, 0.0, 0.0, 0.0, 0.0, 0.0, 0.0)",-2.76592739573e-08,-2.88507366389e-08,9.80018441141,"(0.0, 0.0, 0.0, 0.0, 0.0, 0.0, 0.0, 0.0, 0.0)"
1969/12/31/19:21:15.220000,247383,1275,220000000,firefly/imugt_link,-1.56145372407e-07,2.6118886777e-08,-0.75793197508,-0.652333596522,"(-1.0, -1.0, -1.0, -1.0, -1.0, -1.0, -1.0, -1.0, -1.0)",0.000434758874166,2.79028555567e-05,0.00924665809911,"(0.0, 0.0, 0.0, 0.0, 0.0, 0.0, 0.0, 0.0, 0.0)",-3.04591645294e-08,-3.11891450686e-08,9.80018548861,"(0.0, 0.0, 0.0, 0.0, 0.0, 0.0, 0.0, 0.0, 0.0)"
1969/12/31/19:21:15.225000,247384,1275,225000000,firefly/imugt_link,-1.58866532871e-07,2.75150193783e-08,-0.757949237114,-0.65231353961,"(-1.0, -1.0, -1.0, -1.0, -1.0, -1.0, -1.0, -1.0, -1.0)",0.000434763448714,2.46195236651e-05,0.00919991799093,"(0.0, 0.0, 0.0, 0.0, 0.0, 0.0, 0.0, 0.0, 0.0)",-3.32281292878e-08,-3.34774236194e-08,9.80018617075,"(0.0, 0.0, 0.0, 0.0, 0.0, 0.0, 0.0, 0.0, 0.0)"
1969/12/31/19:21:15.225000,247385,1275,230000000,firefly/imugt_link,-1.61317950606e-07,2.88818767948e-08,-0.75796642215,-0.652293571096,"(-1.0, -1.0, -1.0, -1.0, -1.0, -1.0, -1.0, -1.0, -1.0)",0.000434730448721,2.63890842026e-05,0.00915508827591,"(0.0, 0.0, 0.0, 0.0, 0.0, 0.0, 0.0, 0.0, 0.0)",-3.59635976847e-08,-3.46748472662e-08,9.80019576278,"(0.0, 0.0, 0.0, 0.0, 0.0, 0.0, 0.0, 0.0, 0.0)"
1969/12/31/19:21:15.235000,247386,1275,235000000,firefly/imugt_link,-1.63505054232e-07,3.02117140807e-08,-0.757983530266,-0.652273690904,"(-1.0, -1.0, -1.0, -1.0, -1.0, -1.0, -1.0, -1.0, -1.0)",0.000434733184382,2.82584428674e-05,0.00910750526026,"(0.0, 0.0, 0.0, 0.0, 0.0, 0.0, 0.0, 0.0, 0.0)",-3.8656979305e-08,-3.59399542522e-08,9.80020157243,"(0.0, 0.0, 0.0, 0.0, 0.0, 0.0, 0.0, 0.0, 0.0)"
1969/12/31/19:21:15.240000,247387,1275,240000000,firefly/imugt_link,-1.65431033034e-07,3.14999042579e-08,-0.758000561535,-0.652253898963,"(-1.0, -1.0, -1.0, -1.0, -1.0, -1.0, -1.0, -1.0, -1.0)",0.000436859295048,2.68593946691e-05,0.00905888320025,"(0.0, 0.0, 0.0, 0.0, 0.0, 0.0, 0.0, 0.0, 0.0)",-4.1295052412e-08,-3.72720700652e-08,9.80020495908,"(0.0, 0.0, 0.0, 0.0, 0.0, 0.0, 0.0, 0.0, 0.0)"
1969/12/31/19:21:15.245000,247388,1275,245000000,firefly/imugt_link,-1.67104176754e-07,3.27443973366e-08,-0.758017516052,-0.652234195177,"(-1.0, -1.0, -1.0, -1.0, -1.0, -1.0, -1.0, -1.0, -1.0)",0.000434535294647,3.0571618708e-05,0.00901222086261,"(0.0, 0.0, 0.0, 0.0, 0.0, 0.0, 0.0, 0.0, 0.0)",-4.34723580849e-08,-3.83602280137e-08,9.80021322802,"(0.0, 0.0, 0.0, 0.0, 0.0, 0.0, 0.0, 0.0, 0.0)"
1969/12/31/19:21:15.250000,247389,1275,250000000,firefly/imugt_link,-1.6852962984e-07,3.39381262616e-08,-0.75803439391,-0.652214579451,"(-1.0, -1.0, -1.0, -1.0, -1.0, -1.0, -1.0, -1.0, -1.0)",0.000434852021525,2.90977297066e-05,0.00896619014133,"(0.0, 0.0, 0.0, 0.0, 0.0, 0.0, 0.0, 0.0, 0.0)",-4.59323393698e-08,-3.91457530393e-08,9.80021996779,"(0.0, 0.0, 0.0, 0.0, 0.0, 0.0, 0.0, 0.0, 0.0)"
1969/12/31/19:21:15.255000,247390,1275,255000000,firefly/imugt_link,-1.6971162503e-07,3.50757126396e-08,-0.758051195193,-0.652195051704,"(-1.0, -1.0, -1.0, -1.0, -1.0, -1.0, -1.0, -1.0, -1.0)",0.000436455838064,2.77487636443e-05,0.00892282038148,"(0.0, 0.0, 0.0, 0.0, 0.0, 0.0, 0.0, 0.0, 0.0)",-4.83379070261e-08,-3.9873099866e-08,9.80022352615,"(0.0, 0.0, 0.0, 0.0, 0.0, 0.0, 0.0, 0.0, 0.0)"
1969/12/31/19:21:15.260000,247391,1275,260000000,firefly/imugt_link,-1.70653792663e-07,3.61527419334e-08,-0.758067919973,-0.652175611862,"(-1.0, -1.0, -1.0, -1.0, -1.0, -1.0, -1.0, -1.0, -1.0)",0.000435608320919,2.5139728164e-05,0.00887631131451,"(0.0, 0.0, 0.0, 0.0, 0.0, 0.0, 0.0, 0.0, 0.0)",-5.07029908202e-08,-4.05293645741e-08,9.80022512588,"(0.0, 0.0, 0.0, 0.0, 0.0, 0.0, 0.0, 0.0, 0.0)"
1969/12/31/19:21:15.265000,247392,1275,265000000,firefly/imugt_link,-1.71359254252e-07,3.71653182643e-08,-0.75808456832,-0.65215625986,"(-1.0, -1.0, -1.0, -1.0, -1.0, -1.0, -1.0, -1.0, -1.0)",0.000434884578287,2.74191042454e-05,0.0088328376673,"(0.0, 0.0, 0.0, 0.0, 0.0, 0.0, 0.0, 0.0, 0.0)",-5.30450145008e-08,-4.11116155839e-08,9.80022555507,"(0.0, 0.0, 0.0, 0.0, 0.0, 0.0, 0.0, 0.0, 0.0)"
1969/12/31/19:21:15.265000,247393,1275,270000000,firefly/imugt_link,-1.71830585591e-07,3.81098929025e-08,-0.758101140347,-0.65213699558,"(-1.0, -1.0, -1.0, -1.0, -1.0, -1.0, -1.0, -1.0, -1.0)",0.000439014318302,2.38052491394e-05,0.00879017307415,"(0.0, 0.0, 0.0, 0.0, 0.0, 0.0, 0.0, 0.0, 0.0)",-5.53801924588e-08,-4.16313307873e-08,9.80023498816,"(0.0, 0.0, 0.0, 0.0, 0.0, 0.0, 0.0, 0.0, 0.0)"
1969/12/31/19:21:15.270000,247394,1275,275000000,firefly/imugt_link,-1.72069747856e-07,3.89833039081e-08,-0.75811763615,-0.652117818924,"(-1.0, -1.0, -1.0, -1.0, -1.0, -1.0, -1.0, -1.0, -1.0)",0.000439140750967,1.82136591149e-05,0.00874523037432,"(0.0, 0.0, 0.0, 0.0, 0.0, 0.0, 0.0, 0.0, 0.0)",-5.77189275185e-08,-4.21110120367e-08,9.80023984196,"(0.0, 0.0, 0.0, 0.0, 0.0, 0.0, 0.0, 0.0, 0.0)"
1969/12/31/19:21:15.280000,247395,1275,280000000,firefly/imugt_link,-1.72098538225e-07,3.97954654622e-08,-0.758134055869,-0.652098729742,"(-1.0, -1.0, -1.0, -1.0, -1.0, -1.0, -1.0, -1.0, -1.0)",0.00043944673066,2.35433447476e-05,0.00869583012023,"(0.0, 0.0, 0.0, 0.0, 0.0, 0.0, 0.0, 0.0, 0.0)",-5.82367806236e-08,-4.22872810208e-08,9.80025236863,"(0.0, 0.0, 0.0, 0.0, 0.0, 0.0, 0.0, 0.0, 0.0)"
1969/12/31/19:21:15.285000,247396,1275,285000000,firefly/imugt_link,-1.71932425276e-07,4.05528768485e-08,-0.758150399622,-0.652079727911,"(-1.0, -1.0, -1.0, -1.0, -1.0, -1.0, -1.0, -1.0, -1.0)",0.000438123896547,2.91421928607e-05,0.0086479461301,"(0.0, 0.0, 0.0, 0.0, 0.0, 0.0, 0.0, 0.0, 0.0)",-5.87679228737e-08,-4.24405583831e-08,9.80025848517,"(0.0, 0.0, 0.0, 0.0, 0.0, 0.0, 0.0, 0.0, 0.0)"
1969/12/31/19:21:15.290000,247397,1275,290000000,firefly/imugt_link,-1.71582458519e-07,4.12599499526e-08,-0.758166667508,-0.65206081333,"(-1.0, -1.0, -1.0, -1.0, -1.0, -1.0, -1.0, -1.0, -1.0)",0.000438610701812,3.02296741113e-05,0.00859972914603,"(0.0, 0.0, 0.0, 0.0, 0.0, 0.0, 0.0, 0.0, 0.0)",-5.92901793025e-08,-4.25888709717e-08,9.80026071823,"(0.0, 0.0, 0.0, 0.0, 0.0, 0.0, 0.0, 0.0, 0.0)"
1969/12/31/19:21:15.295000,247398,1275,295000000,firefly/imugt_link,-1.71056672686e-07,4.19197942351e-08,-0.758182859613,-0.65204198591,"(-1.0, -1.0, -1.0, -1.0, -1.0, -1.0, -1.0, -1.0, -1.0)",0.00044084202266,3.35571999568e-05,0.00855715465595,"(0.0, 0.0, 0.0, 0.0, 0.0, 0.0, 0.0, 0.0, 0.0)",-5.97897995919e-08,-4.27387991097e-08,9.80026068653,"(0.0, 0.0, 0.0, 0.0, 0.0, 0.0, 0.0, 0.0, 0.0)"
1969/12/31/19:21:15.300000,247399,1275,300000000,firefly/imugt_link,-1.703586493e-07,4.25232482856e-08,-0.758198976031,-0.652023245556,"(-1.0, -1.0, -1.0, -1.0, -1.0, -1.0, -1.0, -1.0, -1.0)",0.000439958642443,3.22636345418e-05,0.00851048394839,"(0.0, 0.0, 0.0, 0.0, 0.0, 0.0, 0.0, 0.0, 0.0)",-6.09750583865e-08,-4.23438565042e-08,9.80026232964,"(0.0, 0.0, 0.0, 0.0, 0.0, 0.0, 0.0, 0.0, 0.0)"
1969/12/31/19:21:15.305000,247400,1275,305000000,firefly/imugt_link,-1.69491490248e-07,4.30641849684e-08,-0.758215016846,-0.652004592184,"(-1.0, -1.0, -1.0, -1.0, -1.0, -1.0, -1.0, -1.0, -1.0)",0.000439792093616,3.14104879455e-05,0.00846153871554,"(0.0, 0.0, 0.0, 0.0, 0.0, 0.0, 0.0, 0.0, 0.0)",-6.21055593191e-08,-4.19597517822e-08,9.80026205044,"(0.0, 0.0, 0.0, 0.0, 0.0, 0.0, 0.0, 0.0, 0.0)"
1969/12/31/19:21:15.310000,247401,1275,310000000,firefly/imugt_link,-1.68173471464e-07,4.38825918325e-08,-0.758230982171,-0.651986025676,"(-1.0, -1.0, -1.0, -1.0, -1.0, -1.0, -1.0, -1.0, -1.0)",0.00043826829843,2.96646990333e-05,0.00841320176016,"(0.0, 0.0, 0.0, 0.0, 0.0, 0.0, 0.0, 0.0, 0.0)",-6.2599887915e-08,-7.5986011108e-08,9.80027199148,"(0.0, 0.0, 0.0, 0.0, 0.0, 0.0, 0.0, 0.0, 0.0)"
1969/12/31/19:21:15.310000,247402,1275,315000000,firefly/imugt_link,-1.66559656006e-07,4.48159160856e-08,-0.758246872148,-0.651967545878,"(-1.0, -1.0, -1.0, -1.0, -1.0, -1.0, -1.0, -1.0, -1.0)",0.000434804025104,2.65731146583e-05,0.00836305380576,"(0.0, 0.0, 0.0, 0.0, 0.0, 0.0, 0.0, 0.0, 0.0)",-6.25482925855e-08,-6.8612792749e-08,9.80028035443,"(0.0, 0.0, 0.0, 0.0, 0.0, 0.0, 0.0, 0.0, 0.0)"
1969/12/31/19:21:15.320000,247403,1275,320000000,firefly/imugt_link,-1.64750563096e-07,4.5774658681e-08,-0.758262686914,-0.651949152644,"(-1.0, -1.0, -1.0, -1.0, -1.0, -1.0, -1.0, -1.0, -1.0)",0.000432245107782,2.47189220011e-05,0.00831515000575,"(0.0, 0.0, 0.0, 0.0, 0.0, 0.0, 0.0, 0.0, 0.0)",-6.17789909375e-08,-6.33426429523e-08,9.80028618257,"(0.0, 0.0, 0.0, 0.0, 0.0, 0.0, 0.0, 0.0, 0.0)"
1969/12/31/19:21:15.320000,247404,1275,330000000,firefly/imugt_link,-1.60770473822e-07,4.7578410166e-08,-0.758294091256,-0.651912625408,"(-1.0, -1.0, -1.0, -1.0, -1.0, -1.0, -1.0, -1.0, -1.0)",0.000438063193307,2.95776857367e-05,0.00822270472618,"(0.0, 0.0, 0.0, 0.0, 0.0, 0.0, 0.0, 0.0, 0.0)",-6.03454235697e-08,-5.57702159688e-08,9.80028610254,"(0.0, 0.0, 0.0, 0.0, 0.0, 0.0, 0.0, 0.0, 0.0)"
1969/12/31/19:21:15.335000,247405,1275,335000000,firefly/imugt_link,-1.58657782842e-07,4.83780445114e-08,-0.758309681016,-0.651894491215,"(-1.0, -1.0, -1.0, -1.0, -1.0, -1.0, -1.0, -1.0, -1.0)",0.000432984356274,2.79325668845e-05,0.00817754536546,"(0.0, 0.0, 0.0, 0.0, 0.0, 0.0, 0.0, 0.0, 0.0)",-5.96668591561e-08,-5.29977371329e-08,9.80028343013,"(0.0, 0.0, 0.0, 0.0, 0.0, 0.0, 0.0, 0.0, 0.0)"
1969/12/31/19:21:15.345000,247406,1275,340000000,firefly/imugt_link,-1.56481307407e-07,4.90983456332e-08,-0.758325195942,-0.6518764432,"(-1.0, -1.0, -1.0, -1.0, -1.0, -1.0, -1.0, -1.0, -1.0)",0.000434653585627,2.9597824144e-05,0.00813141164492,"(0.0, 0.0, 0.0, 0.0, 0.0, 0.0, 0.0, 0.0, 0.0)",-5.89996548273e-08,-5.07049982848e-08,9.8002801823,"(0.0, 0.0, 0.0, 0.0, 0.0, 0.0, 0.0, 0.0, 0.0)"
1969/12/31/19:21:15.345000,247407,1275,345000000,firefly/imugt_link,-1.54245892612e-07,4.97387811009e-08,-0.758340636107,-0.65185848129,"(-1.0, -1.0, -1.0, -1.0, -1.0, -1.0, -1.0, -1.0, -1.0)",0.000428876830858,3.22679075079e-05,0.00808138480613,"(0.0, 0.0, 0.0, 0.0, 0.0, 0.0, 0.0, 0.0, 0.0)",-5.83335379055e-08,-4.87881726154e-08,9.80027681277,"(0.0, 0.0, 0.0, 0.0, 0.0, 0.0, 0.0, 0.0, 0.0)"
1969/12/31/19:21:15.350000,247408,1275,350000000,firefly/imugt_link,-1.5195184718e-07,5.02967734371e-08,-0.758356001595,-0.651840605398,"(-1.0, -1.0, -1.0, -1.0, -1.0, -1.0, -1.0, -1.0, -1.0)",0.000431823515052,2.94485006565e-05,0.0080321424514,"(0.0, 0.0, 0.0, 0.0, 0.0, 0.0, 0.0, 0.0, 0.0)",-5.79830888001e-08,-4.69178338453e-08,9.80027691454,"(0.0, 0.0, 0.0, 0.0, 0.0, 0.0, 0.0, 0.0, 0.0)"
1969/12/31/19:21:15.355000,247409,1275,355000000,firefly/imugt_link,-1.49598324527e-07,5.07737607994e-08,-0.758371292485,-0.651822815445,"(-1.0, -1.0, -1.0, -1.0, -1.0, -1.0, -1.0, -1.0, -1.0)",0.000433684880019,3.03123324497e-05,0.00798816217441,"(0.0, 0.0, 0.0, 0.0, 0.0, 0.0, 0.0, 0.0, 0.0)",-5.75566121676e-08,-4.53198686353e-08,9.80027572857,"(0.0, 0.0, 0.0, 0.0, 0.0, 0.0, 0.0, 0.0, 0.0)"
1969/12/31/19:21:15.370000,247410,1275,360000000,firefly/imugt_link,-1.47209979951e-07,5.11572500837e-08,-0.758386508927,-0.65180511127,"(-1.0, -1.0, -1.0, -1.0, -1.0, -1.0, -1.0, -1.0, -1.0)",0.000432648613997,3.21096224385e-05,0.00794306125239,"(0.0, 0.0, 0.0, 0.0, 0.0, 0.0, 0.0, 0.0, 0.0)",-5.63573115482e-08,-4.16991067969e-08,9.80028653763,"(0.0, 0.0, 0.0, 0.0, 0.0, 0.0, 0.0, 0.0, 0.0)"
1969/12/31/19:21:15.370000,247412,1275,370000000,firefly/imugt_link,-1.42348270345e-07,5.16138087768e-08,-0.75841671919,-0.651769959459,"(-1.0, -1.0, -1.0, -1.0, -1.0, -1.0, -1.0, -1.0, -1.0)",0.000429869043386,3.47084924311e-05,0.0078593589345,"(0.0, 0.0, 0.0, 0.0, 0.0, 0.0, 0.0, 0.0, 0.0)",-5.538778073e-08,-3.59086488042e-08,9.80030688805,"(0.0, 0.0, 0.0, 0.0, 0.0, 0.0, 0.0, 0.0, 0.0)"
1969/12/31/19:21:15.385000,247413,1275,375000000,firefly/imugt_link,-1.39883568147e-07,5.16901448688e-08,-0.758431713334,-0.651752511472,"(-1.0, -1.0, -1.0, -1.0, -1.0, -1.0, -1.0, -1.0, -1.0)",0.000432727396568,3.62477774634e-05,0.00781054547044,"(0.0, 0.0, 0.0, 0.0, 0.0, 0.0, 0.0, 0.0, 0.0)",-5.41990378596e-08,-3.36740454144e-08,9.80031471919,"(0.0, 0.0, 0.0, 0.0, 0.0, 0.0, 0.0, 0.0, 0.0)"
1969/12/31/19:21:15.385000,247415,1275,385000000,firefly/imugt_link,-1.34902138683e-07,5.15698431392e-08,-0.758461480351,-0.651717870573,"(-1.0, -1.0, -1.0, -1.0, -1.0, -1.0, -1.0, -1.0, -1.0)",0.00043264193853,3.84041328647e-05,0.0077258679984,"(0.0, 0.0, 0.0, 0.0, 0.0, 0.0, 0.0, 0.0, 0.0)",-5.19856118686e-08,-2.9418473033e-08,9.80031400868,"(0.0, 0.0, 0.0, 0.0, 0.0, 0.0, 0.0, 0.0, 0.0)"
1969/12/31/19:21:15.385000,247416,1275,390000000,firefly/imugt_link,-1.32387575145e-07,5.13815938515e-08,-0.758476253441,-0.651700677433,"(-1.0, -1.0, -1.0, -1.0, -1.0, -1.0, -1.0, -1.0, -1.0)",0.000431934407014,4.30391441155e-05,0.00767909405768,"(0.0, 0.0, 0.0, 0.0, 0.0, 0.0, 0.0, 0.0, 0.0)",-5.09447779095e-08,-2.74331165443e-08,9.80031001364,"(0.0, 0.0, 0.0, 0.0, 0.0, 0.0, 0.0, 0.0, 0.0)"
1969/12/31/19:21:15.385000,247417,1275,395000000,firefly/imugt_link,-1.29857243748e-07,5.11125854735e-08,-0.758490953039,-0.651683569041,"(-1.0, -1.0, -1.0, -1.0, -1.0, -1.0, -1.0, -1.0, -1.0)",0.000434399222488,4.33041393753e-05,0.00762966340733,"(0.0, 0.0, 0.0, 0.0, 0.0, 0.0, 0.0, 0.0, 0.0)",-4.99331595386e-08,-2.55485131005e-08,9.80030524571,"(0.0, 0.0, 0.0, 0.0, 0.0, 0.0, 0.0, 0.0, 0.0)"
1969/12/31/19:21:15.400000,247418,1275,400000000,firefly/imugt_link,-1.2731085595e-07,5.07658640657e-08,-0.758505579225,-0.651666545316,"(-1.0, -1.0, -1.0, -1.0, -1.0, -1.0, -1.0, -1.0, -1.0)",0.000431199049112,3.92343762446e-05,0.00758566329435,"(0.0, 0.0, 0.0, 0.0, 0.0, 0.0, 0.0, 0.0, 0.0)",-4.89410315888e-08,-2.37520389145e-08,9.80030033855,"(0.0, 0.0, 0.0, 0.0, 0.0, 0.0, 0.0, 0.0, 0.0)"
1969/12/31/19:21:15.405000,247419,1275,405000000,firefly/imugt_link,-1.247482096e-07,5.03440760841e-08,-0.758520132071,-0.651649606186,"(-1.0, -1.0, -1.0, -1.0, -1.0, -1.0, -1.0, -1.0, -1.0)",0.000434274482799,4.08090047377e-05,0.00753634873683,"(0.0, 0.0, 0.0, 0.0, 0.0, 0.0, 0.0, 0.0, 0.0)",-4.79635392963e-08,-2.20194108276e-08,9.80029564823,"(0.0, 0.0, 0.0, 0.0, 0.0, 0.0, 0.0, 0.0, 0.0)"
1969/12/31/19:21:15.415000,247420,1275,410000000,firefly/imugt_link,-1.22169387585e-07,4.98493089879e-08,-0.758534611645,-0.651632751584,"(-1.0, -1.0, -1.0, -1.0, -1.0, -1.0, -1.0, -1.0, -1.0)",0.000435292328051,4.12832740708e-05,0.00749187391452,"(0.0, 0.0, 0.0, 0.0, 0.0, 0.0, 0.0, 0.0, 0.0)",-4.70027903582e-08,-2.0322069493e-08,9.80029135721,"(0.0, 0.0, 0.0, 0.0, 0.0, 0.0, 0.0, 0.0, 0.0)"
1969/12/31/19:21:15.415000,247421,1275,415000000,firefly/imugt_link,-1.19574810909e-07,4.92829461825e-08,-0.758549018033,-0.651615981419,"(-1.0, -1.0, -1.0, -1.0, -1.0, -1.0, -1.0, -1.0, -1.0)",0.000437068971118,4.46552630294e-05,0.00744760611852,"(0.0, 0.0, 0.0, 0.0, 0.0, 0.0, 0.0, 0.0, 0.0)",-4.6067340968e-08,-1.86331813662e-08,9.80029115381,"(0.0, 0.0, 0.0, 0.0, 0.0, 0.0, 0.0, 0.0, 0.0)"
1969/12/31/19:21:15.425000,247422,1275,420000000,firefly/imugt_link,-1.17811307104e-07,4.86968675899e-08,-0.758563351449,-0.651599295456,"(-1.0, -1.0, -1.0, -1.0, -1.0, -1.0, -1.0, -1.0, -1.0)",0.0004387458327,4.97876250933e-05,0.00740344329618,"(0.0, 0.0, 0.0, 0.0, 0.0, 0.0, 0.0, 0.0, 0.0)",6.94831156232e-09,2.24375191691e-08,9.80032113102,"(0.0, 0.0, 0.0, 0.0, 0.0, 0.0, 0.0, 0.0, 0.0)"
1969/12/31/19:21:15.425000,247423,1275,425000000,firefly/imugt_link,-1.16742503688e-07,4.80820522913e-08,-0.758577612074,-0.651582693493,"(-1.0, -1.0, -1.0, -1.0, -1.0, -1.0, -1.0, -1.0, -1.0)",0.000441596271848,4.63807630764e-05,0.00736191665123,"(0.0, 0.0, 0.0, 0.0, 0.0, 0.0, 0.0, 0.0, 0.0)",1.44630856971e-08,2.92921478447e-08,9.80032894445,"(0.0, 0.0, 0.0, 0.0, 0.0, 0.0, 0.0, 0.0, 0.0)"
1969/12/31/19:21:15.430000,247424,1275,430000000,firefly/imugt_link,-1.16248597343e-07,4.74308870803e-08,-0.758591800167,-0.651566175242,"(-1.0, -1.0, -1.0, -1.0, -1.0, -1.0, -1.0, -1.0, -1.0)",0.000446077021716,4.48937923957e-05,0.00731961892319,"(0.0, 0.0, 0.0, 0.0, 0.0, 0.0, 0.0, 0.0, 0.0)",2.06821834508e-08,3.51405911161e-08,9.80034582077,"(0.0, 0.0, 0.0, 0.0, 0.0, 0.0, 0.0, 0.0, 0.0)"
1969/12/31/19:21:15.435000,247425,1275,435000000,firefly/imugt_link,-1.16230216365e-07,4.67375270633e-08,-0.758605915928,-0.651549740479,"(-1.0, -1.0, -1.0, -1.0, -1.0, -1.0, -1.0, -1.0, -1.0)",0.000446816537299,4.52798066926e-05,0.00727872347566,"(0.0, 0.0, 0.0, 0.0, 0.0, 0.0, 0.0, 0.0, 0.0)",2.60689825619e-08,4.03171465233e-08,9.80035082002,"(0.0, 0.0, 0.0, 0.0, 0.0, 0.0, 0.0, 0.0, 0.0)"
1969/12/31/19:21:15.440000,247426,1275,440000000,firefly/imugt_link,-1.16605197358e-07,4.59976015664e-08,-0.758619959521,-0.651533389027,"(-1.0, -1.0, -1.0, -1.0, -1.0, -1.0, -1.0, -1.0, -1.0)",0.000450621820138,4.43794059954e-05,0.00723740254589,"(0.0, 0.0, 0.0, 0.0, 0.0, 0.0, 0.0, 0.0, 0.0)",3.07431761746e-08,4.49125158494e-08,9.80034900217,"(0.0, 0.0, 0.0, 0.0, 0.0, 0.0, 0.0, 0.0, 0.0)"
1969/12/31/19:21:15.445000,247427,1275,445000000,firefly/imugt_link,-1.17305924917e-07,4.52078124797e-08,-0.758633931077,-0.651517120741,"(-1.0, -1.0, -1.0, -1.0, -1.0, -1.0, -1.0, -1.0, -1.0)",0.000452649774761,4.4747090593e-05,0.00718987248344,"(0.0, 0.0, 0.0, 0.0, 0.0, 0.0, 0.0, 0.0, 0.0)",3.48168706679e-08,4.90271931418e-08,9.80034355163,"(0.0, 0.0, 0.0, 0.0, 0.0, 0.0, 0.0, 0.0, 0.0)"
1969/12/31/19:21:15.455000,247428,1275,450000000,firefly/imugt_link,-1.18256295633e-07,4.43754766647e-08,-0.758647830857,-0.65150093533,"(-1.0, -1.0, -1.0, -1.0, -1.0, -1.0, -1.0, -1.0, -1.0)",0.000448893610309,4.15998569098e-05,0.00714861354216,"(0.0, 0.0, 0.0, 0.0, 0.0, 0.0, 0.0, 0.0, 0.0)",3.76717275691e-08,5.11374923701e-08,9.80035795769,"(0.0, 0.0, 0.0, 0.0, 0.0, 0.0, 0.0, 0.0, 0.0)"
1969/12/31/19:21:15.455000,247429,1275,455000000,firefly/imugt_link,-1.19397305652e-07,4.35049382086e-08,-0.758661659065,-0.651484832566,"(-1.0, -1.0, -1.0, -1.0, -1.0, -1.0, -1.0, -1.0, -1.0)",0.000449248981709,4.06556085193e-05,0.00710635257538,"(0.0, 0.0, 0.0, 0.0, 0.0, 0.0, 0.0, 0.0, 0.0)",4.01349444516e-08,5.30183429666e-08,9.80036098082,"(0.0, 0.0, 0.0, 0.0, 0.0, 0.0, 0.0, 0.0, 0.0)"
1969/12/31/19:21:15.455000,247430,1275,460000000,firefly/imugt_link,-1.20682914609e-07,4.25984903626e-08,-0.758675415866,-0.65146881227,"(-1.0, -1.0, -1.0, -1.0, -1.0, -1.0, -1.0, -1.0, -1.0)",0.00045155595506,4.17837136058e-05,0.00706259954205,"(0.0, 0.0, 0.0, 0.0, 0.0, 0.0, 0.0, 0.0, 0.0)",4.22608469316e-08,5.47101196262e-08,9.80035757616,"(0.0, 0.0, 0.0, 0.0, 0.0, 0.0, 0.0, 0.0, 0.0)"
1969/12/31/19:21:15.465000,247431,1275,465000000,firefly/imugt_link,-1.22076870282e-07,4.16570829477e-08,-0.758689101393,-0.651452874296,"(-1.0, -1.0, -1.0, -1.0, -1.0, -1.0, -1.0, -1.0, -1.0)",0.000449549869962,4.51380434888e-05,0.00702473919683,"(0.0, 0.0, 0.0, 0.0, 0.0, 0.0, 0.0, 0.0, 0.0)",4.40968506619e-08,5.62426953909e-08,9.80035084729,"(0.0, 0.0, 0.0, 0.0, 0.0, 0.0, 0.0, 0.0, 0.0)"
1969/12/31/19:21:15.470000,247432,1275,470000000,firefly/imugt_link,-1.23550285388e-07,4.06808857492e-08,-0.75870271576,-0.65143701852,"(-1.0, -1.0, -1.0, -1.0, -1.0, -1.0, -1.0, -1.0, -1.0)",0.000451365055764,4.24900809769e-05,0.00698293112656,"(0.0, 0.0, 0.0, 0.0, 0.0, 0.0, 0.0, 0.0, 0.0)",4.56855535671e-08,5.76365952633e-08,9.80034269615,"(0.0, 0.0, 0.0, 0.0, 0.0, 0.0, 0.0, 0.0, 0.0)"
1969/12/31/19:21:15.480000,247433,1275,475000000,firefly/imugt_link,-1.25079834319e-07,3.96697221003e-08,-0.758716259066,-0.65142124484,"(-1.0, -1.0, -1.0, -1.0, -1.0, -1.0, -1.0, -1.0, -1.0)",0.000451211562041,4.50070131666e-05,0.00693621300185,"(0.0, 0.0, 0.0, 0.0, 0.0, 0.0, 0.0, 0.0, 0.0)",4.70666436472e-08,5.89065830428e-08,9.80033425158,"(0.0, 0.0, 0.0, 0.0, 0.0, 0.0, 0.0, 0.0, 0.0)"
1969/12/31/19:21:15.480000,247434,1275,480000000,firefly/imugt_link,-1.2664646695e-07,3.86233653342e-08,-0.758729731398,-0.651405553164,"(-1.0, -1.0, -1.0, -1.0, -1.0, -1.0, -1.0, -1.0, -1.0)",0.000452145182055,4.17030310665e-05,0.0068948309138,"(0.0, 0.0, 0.0, 0.0, 0.0, 0.0, 0.0, 0.0, 0.0)",4.82781054456e-08,6.00662435481e-08,9.80032615061,"(0.0, 0.0, 0.0, 0.0, 0.0, 0.0, 0.0, 0.0, 0.0)"
1969/12/31/19:21:15.480000,247435,1275,485000000,firefly/imugt_link,-1.28234537473e-07,3.7541695109e-08,-0.758743132833,-0.651389943413,"(-1.0, -1.0, -1.0, -1.0, -1.0, -1.0, -1.0, -1.0, -1.0)",0.000449215202724,3.73171444186e-05,0.00684916728844,"(0.0, 0.0, 0.0, 0.0, 0.0, 0.0, 0.0, 0.0, 0.0)",4.93566610709e-08,6.11340873094e-08,9.80031872234,"(0.0, 0.0, 0.0, 0.0, 0.0, 0.0, 0.0, 0.0, 0.0)"
1969/12/31/19:21:15.485000,247436,1275,490000000,firefly/imugt_link,-1.29831236618e-07,3.64247291191e-08,-0.758756463443,-0.651374415512,"(-1.0, -1.0, -1.0, -1.0, -1.0, -1.0, -1.0, -1.0, -1.0)",0.000449233503096,3.99766151353e-05,0.00680634414663,"(0.0, 0.0, 0.0, 0.0, 0.0, 0.0, 0.0, 0.0, 0.0)",5.03366638398e-08,6.21341019805e-08,9.80031210716,"(0.0, 0.0, 0.0, 0.0, 0.0, 0.0, 0.0, 0.0, 0.0)"
1969/12/31/19:21:15.500000,247437,1275,495000000,firefly/imugt_link,-1.3142621091e-07,3.52725661019e-08,-0.758769723295,-0.651358969394,"(-1.0, -1.0, -1.0, -1.0, -1.0, -1.0, -1.0, -1.0, -1.0)",0.000452553736036,4.20488632783e-05,0.00676247616769,"(0.0, 0.0, 0.0, 0.0, 0.0, 0.0, 0.0, 0.0, 0.0)",5.12484348965e-08,6.3094469982e-08,9.80030633356,"(0.0, 0.0, 0.0, 0.0, 0.0, 0.0, 0.0, 0.0, 0.0)"
1969/12/31/19:21:15.500000,247438,1275,500000000,firefly/imugt_link,-1.32952129355e-07,3.40878997662e-08,-0.758782912734,-0.651343604668,"(-1.0, -1.0, -1.0, -1.0, -1.0, -1.0, -1.0, -1.0, -1.0)",0.000455383937291,4.02517597681e-05,0.00671857205556,"(0.0, 0.0, 0.0, 0.0, 0.0, 0.0, 0.0, 0.0, 0.0)",4.87837829333e-08,6.09308043028e-08,9.80034061135,"(0.0, 0.0, 0.0, 0.0, 0.0, 0.0, 0.0, 0.0, 0.0)"
1969/12/31/19:21:15.505000,247439,1275,505000000,firefly/imugt_link,-1.34359494163e-07,3.28730541517e-08,-0.758796032024,-0.651328321037,"(-1.0, -1.0, -1.0, -1.0, -1.0, -1.0, -1.0, -1.0, -1.0)",0.000452521713615,4.05409383391e-05,0.00667733089062,"(0.0, 0.0, 0.0, 0.0, 0.0, 0.0, 0.0, 0.0, 0.0)",4.62467666854e-08,5.86895322447e-08,9.80035528532,"(0.0, 0.0, 0.0, 0.0, 0.0, 0.0, 0.0, 0.0, 0.0)"
1969/12/31/19:21:15.510000,247440,1275,510000000,firefly/imugt_link,-1.35611623737e-07,3.16299198177e-08,-0.75880908137,-0.651313118269,"(-1.0, -1.0, -1.0, -1.0, -1.0, -1.0, -1.0, -1.0, -1.0)",0.000452698272021,4.26817522526e-05,0.0066388523538,"(0.0, 0.0, 0.0, 0.0, 0.0, 0.0, 0.0, 0.0, 0.0)",4.36302742991e-08,5.63829328354e-08,9.80035832345,"(0.0, 0.0, 0.0, 0.0, 0.0, 0.0, 0.0, 0.0, 0.0)"
1969/12/31/19:21:15.515000,247441,1275,515000000,firefly/imugt_link,-1.36681009558e-07,3.0360029682e-08,-0.758822060939,-0.651297996183,"(-1.0, -1.0, -1.0, -1.0, -1.0, -1.0, -1.0, -1.0, -1.0)",0.000452749133015,3.91619559659e-05,0.0065928827657,"(0.0, 0.0, 0.0, 0.0, 0.0, 0.0, 0.0, 0.0, 0.0)",4.09339919419e-08,5.40167413574e-08,9.80035479406,"(0.0, 0.0, 0.0, 0.0, 0.0, 0.0, 0.0, 0.0, 0.0)"
1969/12/31/19:21:15.520000,247442,1275,520000000,firefly/imugt_link,-1.37549158596e-07,2.90760822306e-08,-0.758834971001,-0.651282954472,"(-1.0, -1.0, -1.0, -1.0, -1.0, -1.0, -1.0, -1.0, -1.0)",0.000454466495102,4.19023954247e-05,0.00654783398179,"(0.0, 0.0, 0.0, 0.0, 0.0, 0.0, 0.0, 0.0, 0.0)",3.88768574356e-08,5.10483777949e-08,9.80036696964,"(0.0, 0.0, 0.0, 0.0, 0.0, 0.0, 0.0, 0.0, 0.0)"
1969/12/31/19:21:15.525000,247443,1275,525000000,firefly/imugt_link,-1.382014396e-07,2.77868867745e-08,-0.758847811767,-0.6512679929,"(-1.0, -1.0, -1.0, -1.0, -1.0, -1.0, -1.0, -1.0, -1.0)",0.000459076980831,4.32364753554e-05,0.00650709386206,"(0.0, 0.0, 0.0, 0.0, 0.0, 0.0, 0.0, 0.0, 0.0)",3.6720255661e-08,4.80447794942e-08,9.80036787059,"(0.0, 0.0, 0.0, 0.0, 0.0, 0.0, 0.0, 0.0, 0.0)"
1969/12/31/19:21:15.530000,247444,1275,530000000,firefly/imugt_link,-1.3862607653e-07,2.64986527699e-08,-0.758860583408,-0.651253111279,"(-1.0, -1.0, -1.0, -1.0, -1.0, -1.0, -1.0, -1.0, -1.0)",0.000462750008189,4.4594411743e-05,0.00646340470732,"(0.0, 0.0, 0.0, 0.0, 0.0, 0.0, 0.0, 0.0, 0.0)",3.44815136806e-08,4.50015856876e-08,9.80036253001,"(0.0, 0.0, 0.0, 0.0, 0.0, 0.0, 0.0, 0.0, 0.0)"
1969/12/31/19:21:15.545000,247445,1275,535000000,firefly/imugt_link,-1.38813505677e-07,2.52158040319e-08,-0.758873286061,-0.651238309456,"(-1.0, -1.0, -1.0, -1.0, -1.0, -1.0, -1.0, -1.0, -1.0)",0.000459219143089,4.1312570738e-05,0.00642155980097,"(0.0, 0.0, 0.0, 0.0, 0.0, 0.0, 0.0, 0.0, 0.0)",3.21751289027e-08,4.19248411062e-08,9.80035408312,"(0.0, 0.0, 0.0, 0.0, 0.0, 0.0, 0.0, 0.0, 0.0)"
1969/12/31/19:21:15.545000,247446,1275,540000000,firefly/imugt_link,-1.38757334197e-07,2.39477433222e-08,-0.758885920021,-0.651223587099,"(-1.0, -1.0, -1.0, -1.0, -1.0, -1.0, -1.0, -1.0, -1.0)",0.000460797560407,4.82899024008e-05,0.00638179546364,"(0.0, 0.0, 0.0, 0.0, 0.0, 0.0, 0.0, 0.0, 0.0)",3.02068528497e-08,3.85292347722e-08,9.80036863705,"(0.0, 0.0, 0.0, 0.0, 0.0, 0.0, 0.0, 0.0, 0.0)"
1969/12/31/19:21:15.550000,247447,1275,545000000,firefly/imugt_link,-1.38452468093e-07,2.27017613147e-08,-0.758898485513,-0.651208943955,"(-1.0, -1.0, -1.0, -1.0, -1.0, -1.0, -1.0, -1.0, -1.0)",0.00046400783521,4.92288490311e-05,0.00634036289729,"(0.0, 0.0, 0.0, 0.0, 0.0, 0.0, 0.0, 0.0, 0.0)",2.82366986488e-08,3.50966918468e-08,9.80037049353,"(0.0, 0.0, 0.0, 0.0, 0.0, 0.0, 0.0, 0.0, 0.0)"
1969/12/31/19:21:15.550000,247448,1275,550000000,firefly/imugt_link,-1.37894937767e-07,2.14834853982e-08,-0.758910982719,-0.65119437982,"(-1.0, -1.0, -1.0, -1.0, -1.0, -1.0, -1.0, -1.0, -1.0)",0.000463428267438,5.36579944688e-05,0.00629944915763,"(0.0, 0.0, 0.0, 0.0, 0.0, 0.0, 0.0, 0.0, 0.0)",2.62667748643e-08,3.16450732619e-08,9.80036527051,"(0.0, 0.0, 0.0, 0.0, 0.0, 0.0, 0.0, 0.0, 0.0)"
1969/12/31/19:21:15.555000,247449,1275,555000000,firefly/imugt_link,-1.3708170068e-07,2.02972741606e-08,-0.758923411785,-0.651179894533,"(-1.0, -1.0, -1.0, -1.0, -1.0, -1.0, -1.0, -1.0, -1.0)",0.000468346229956,4.75164867901e-05,0.00625660518526,"(0.0, 0.0, 0.0, 0.0, 0.0, 0.0, 0.0, 0.0, 0.0)",2.42975530495e-08,2.81837949004e-08,9.80035647427,"(0.0, 0.0, 0.0, 0.0, 0.0, 0.0, 0.0, 0.0, 0.0)"
1969/12/31/19:21:15.565000,247450,1275,560000000,firefly/imugt_link,-1.36010412028e-07,1.91465839421e-08,-0.758935772835,-0.651165487961,"(-1.0, -1.0, -1.0, -1.0, -1.0, -1.0, -1.0, -1.0, -1.0)",0.000465879815777,5.30840017197e-05,0.00621631292922,"(0.0, 0.0, 0.0, 0.0, 0.0, 0.0, 0.0, 0.0, 0.0)",2.23279064369e-08,2.47122315244e-08,9.80034624264,"(0.0, 0.0, 0.0, 0.0, 0.0, 0.0, 0.0, 0.0, 0.0)"
1969/12/31/19:21:15.565000,247451,1275,565000000,firefly/imugt_link,-1.34670047279e-07,1.80449754537e-08,-0.758948066044,-0.651151159907,"(-1.0, -1.0, -1.0, -1.0, -1.0, -1.0, -1.0, -1.0, -1.0)",0.000466933980099,5.03876588324e-05,0.00617533898754,"(0.0, 0.0, 0.0, 0.0, 0.0, 0.0, 0.0, 0.0, 0.0)",2.03549093978e-08,2.01387929629e-08,9.8003453916,"(0.0, 0.0, 0.0, 0.0, 0.0, 0.0, 0.0, 0.0, 0.0)"
1969/12/31/19:21:15.570000,247452,1275,570000000,firefly/imugt_link,-1.33052891944e-07,1.70021419532e-08,-0.758960291555,-0.651136910214,"(-1.0, -1.0, -1.0, -1.0, -1.0, -1.0, -1.0, -1.0, -1.0)",0.000462228641541,4.68442462726e-05,0.00613925304132,"(0.0, 0.0, 0.0, 0.0, 0.0, 0.0, 0.0, 0.0, 0.0)",1.83767379363e-08,1.55804239804e-08,9.80034001678,"(0.0, 0.0, 0.0, 0.0, 0.0, 0.0, 0.0, 0.0, 0.0)"
1969/12/31/19:21:15.575000,247453,1275,575000000,firefly/imugt_link,-1.31153413477e-07,1.60252058983e-08,-0.758972449486,-0.651122738753,"(-1.0, -1.0, -1.0, -1.0, -1.0, -1.0, -1.0, -1.0, -1.0)",0.000464024112673,4.55817646499e-05,0.00609573452656,"(0.0, 0.0, 0.0, 0.0, 0.0, 0.0, 0.0, 0.0, 0.0)",1.63880745494e-08,1.10123054197e-08,9.80033248047,"(0.0, 0.0, 0.0, 0.0, 0.0, 0.0, 0.0, 0.0, 0.0)"
1969/12/31/19:21:15.580000,247454,1275,580000000,firefly/imugt_link,-1.28976712762e-07,1.51088430706e-08,-0.758984540047,-0.651108645289,"(-1.0, -1.0, -1.0, -1.0, -1.0, -1.0, -1.0, -1.0, -1.0)",0.000468337645845,4.00619268268e-05,0.00605650554963,"(0.0, 0.0, 0.0, 0.0, 0.0, 0.0, 0.0, 0.0, 0.0)",1.43847243249e-08,7.50655809582e-09,9.80033900856,"(0.0, 0.0, 0.0, 0.0, 0.0, 0.0, 0.0, 0.0, 0.0)"
1969/12/31/19:21:15.590000,247455,1275,585000000,firefly/imugt_link,-1.26544056368e-07,1.42510007592e-08,-0.758996563552,-0.651094629463,"(-1.0, -1.0, -1.0, -1.0, -1.0, -1.0, -1.0, -1.0, -1.0)",0.000465442445027,3.64717931005e-05,0.00601731108692,"(0.0, 0.0, 0.0, 0.0, 0.0, 0.0, 0.0, 0.0, 0.0)",1.34736207369e-08,4.78230382962e-09,9.80035762329,"(0.0, 0.0, 0.0, 0.0, 0.0, 0.0, 0.0, 0.0, 0.0)"
1969/12/31/19:21:15.600000,247456,1275,590000000,firefly/imugt_link,-1.23870666953e-07,1.34504690822e-08,-0.759008520245,-0.651080691002,"(-1.0, -1.0, -1.0, -1.0, -1.0, -1.0, -1.0, -1.0, -1.0)",0.000464226853943,3.59668503307e-05,0.00598025932294,"(0.0, 0.0, 0.0, 0.0, 0.0, 0.0, 0.0, 0.0, 0.0)",1.25514080129e-08,2.04989594785e-09,9.80036165217,"(0.0, 0.0, 0.0, 0.0, 0.0, 0.0, 0.0, 0.0, 0.0)"
1969/12/31/19:21:15.600000,247458,1275,600000000,firefly/imugt_link,-1.17843512067e-07,1.20175295219e-08,-0.759032233922,-0.651053045356,"(-1.0, -1.0, -1.0, -1.0, -1.0, -1.0, -1.0, -1.0, -1.0)",0.000466863000392,3.60922635482e-05,0.00590022825514,"(0.0, 0.0, 0.0, 0.0, 0.0, 0.0, 0.0, 0.0, 0.0)",1.06528423189e-08,-3.33605182783e-09,9.80034894503,"(0.0, 0.0, 0.0, 0.0, 0.0, 0.0, 0.0, 0.0, 0.0)"
1969/12/31/19:21:15.600000,247459,1275,605000000,firefly/imugt_link,-1.14504429065e-07,1.13830656506e-08,-0.759043991188,-0.65103933786,"(-1.0, -1.0, -1.0, -1.0, -1.0, -1.0, -1.0, -1.0, -1.0)",0.000471312553282,3.23924246848e-05,0.00586272137553,"(0.0, 0.0, 0.0, 0.0, 0.0, 0.0, 0.0, 0.0, 0.0)",9.65807166545e-09,-5.97787027869e-09,9.80033861682,"(0.0, 0.0, 0.0, 0.0, 0.0, 0.0, 0.0, 0.0, 0.0)"
1969/12/31/19:21:15.610000,247460,1275,610000000,firefly/imugt_link,-1.10955155943e-07,1.08018793984e-08,-0.759055682224,-0.651025707084,"(-1.0, -1.0, -1.0, -1.0, -1.0, -1.0, -1.0, -1.0, -1.0)",0.000470517032447,3.29553307624e-05,0.00582162042608,"(0.0, 0.0, 0.0, 0.0, 0.0, 0.0, 0.0, 0.0, 0.0)",8.62110834945e-09,-8.6067072881e-09,9.80032789714,"(0.0, 0.0, 0.0, 0.0, 0.0, 0.0, 0.0, 0.0, 0.0)"
1969/12/31/19:21:15.615000,247461,1275,615000000,firefly/imugt_link,-1.07199010284e-07,1.02732201842e-08,-0.759067307122,-0.651012152927,"(-1.0, -1.0, -1.0, -1.0, -1.0, -1.0, -1.0, -1.0, -1.0)",0.000465607243882,3.13863048905e-05,0.00578631301795,"(0.0, 0.0, 0.0, 0.0, 0.0, 0.0, 0.0, 0.0, 0.0)",7.53679797605e-09,-1.12545871149e-08,9.80031760323,"(0.0, 0.0, 0.0, 0.0, 0.0, 0.0, 0.0, 0.0, 0.0)"
1969/12/31/19:21:15.620000,247462,1275,620000000,firefly/imugt_link,-1.03253653422e-07,9.78656485529e-09,-0.759078866117,-0.650998675125,"(-1.0, -1.0, -1.0, -1.0, -1.0, -1.0, -1.0, -1.0, -1.0)",0.000466736602454,2.98265390698e-05,0.00574457435237,"(0.0, 0.0, 0.0, 0.0, 0.0, 0.0, 0.0, 0.0, 0.0)",6.79996732976e-09,-1.25748579131e-08,9.80032880404,"(0.0, 0.0, 0.0, 0.0, 0.0, 0.0, 0.0, 0.0, 0.0)"
1969/12/31/19:21:15.625000,247463,1275,625000000,firefly/imugt_link,-9.91326561402e-08,9.34063821572e-09,-0.759090359433,-0.650985273424,"(-1.0, -1.0, -1.0, -1.0, -1.0, -1.0, -1.0, -1.0, -1.0)",0.000469882993533,2.84390828637e-05,0.00570009373028,"(0.0, 0.0, 0.0, 0.0, 0.0, 0.0, 0.0, 0.0, 0.0)",6.38162873094e-09,-1.42339924606e-08,9.80033532747,"(0.0, 0.0, 0.0, 0.0, 0.0, 0.0, 0.0, 0.0, 0.0)"
1969/12/31/19:21:15.630000,247464,1275,630000000,firefly/imugt_link,-9.48609117371e-08,8.92420286893e-09,-0.759101787363,-0.650971947493,"(-1.0, -1.0, -1.0, -1.0, -1.0, -1.0, -1.0, -1.0, -1.0)",0.000469135086654,2.95063621466e-05,0.00565545543363,"(0.0, 0.0, 0.0, 0.0, 0.0, 0.0, 0.0, 0.0, 0.0)",6.28610614775e-09,-1.45519981363e-08,9.80034909222,"(0.0, 0.0, 0.0, 0.0, 0.0, 0.0, 0.0, 0.0, 0.0)"
1969/12/31/19:21:15.635000,247465,1275,635000000,firefly/imugt_link,-9.04563865302e-08,8.5298068649e-09,-0.759113150133,-0.650958697073,"(-1.0, -1.0, -1.0, -1.0, -1.0, -1.0, -1.0, -1.0, -1.0)",0.000471559210241,3.60043283352e-05,0.00561533745226,"(0.0, 0.0, 0.0, 0.0, 0.0, 0.0, 0.0, 0.0, 0.0)",6.17893577045e-09,-1.49169618526e-08,9.80035025928,"(0.0, 0.0, 0.0, 0.0, 0.0, 0.0, 0.0, 0.0, 0.0)"
1969/12/31/19:21:15.640000,247466,1275,640000000,firefly/imugt_link,-8.59388634428e-08,8.15277293953e-09,-0.759124448042,-0.650945521825,"(-1.0, -1.0, -1.0, -1.0, -1.0, -1.0, -1.0, -1.0, -1.0)",0.000474906216517,3.48532362751e-05,0.00557657617872,"(0.0, 0.0, 0.0, 0.0, 0.0, 0.0, 0.0, 0.0, 0.0)",6.45816153221e-09,-1.49977822578e-08,9.80036081726,"(0.0, 0.0, 0.0, 0.0, 0.0, 0.0, 0.0, 0.0, 0.0)"
1969/12/31/19:21:15.645000,247467,1275,645000000,firefly/imugt_link,-8.132399592e-08,7.78960802216e-09,-0.759135681365,-0.650932421438,"(-1.0, -1.0, -1.0, -1.0, -1.0, -1.0, -1.0, -1.0, -1.0)",0.000473631863737,3.45682704946e-05,0.00554421233158,"(0.0, 0.0, 0.0, 0.0, 0.0, 0.0, 0.0, 0.0, 0.0)",6.76516266373e-09,-1.50224444724e-08,9.80036481866,"(0.0, 0.0, 0.0, 0.0, 0.0, 0.0, 0.0, 0.0, 0.0)"
1969/12/31/19:21:15.650000,247468,1275,650000000,firefly/imugt_link,-7.66245340982e-08,7.43722969615e-09,-0.759146850313,-0.65091939567,"(-1.0, -1.0, -1.0, -1.0, -1.0, -1.0, -1.0, -1.0, -1.0)",0.00047165154947,3.75312206944e-05,0.0055075076036,"(0.0, 0.0, 0.0, 0.0, 0.0, 0.0, 0.0, 0.0, 0.0)",7.07886806212e-09,-1.496728883e-08,9.80035941981,"(0.0, 0.0, 0.0, 0.0, 0.0, 0.0, 0.0, 0.0, 0.0)"
1969/12/31/19:21:15.655000,247469,1275,655000000,firefly/imugt_link,-7.18626683781e-08,7.09324500075e-09,-0.759157955098,-0.650906444285,"(-1.0, -1.0, -1.0, -1.0, -1.0, -1.0, -1.0, -1.0, -1.0)",0.000470789745742,3.61892099768e-05,0.00546788314901,"(0.0, 0.0, 0.0, 0.0, 0.0, 0.0, 0.0, 0.0, 0.0)",8.09126191381e-09,-1.42836780492e-08,9.80035455422,"(0.0, 0.0, 0.0, 0.0, 0.0, 0.0, 0.0, 0.0, 0.0)"
1969/12/31/19:21:15.665000,247470,1275,660000000,firefly/imugt_link,-6.70548657984e-08,6.75495898592e-09,-0.759168995888,-0.650893567092,"(-1.0, -1.0, -1.0, -1.0, -1.0, -1.0, -1.0, -1.0, -1.0)",0.000470498373238,4.03419512964e-05,0.005431773583,"(0.0, 0.0, 0.0, 0.0, 0.0, 0.0, 0.0, 0.0, 0.0)",9.03316028769e-09,-1.354975276e-08,9.80034480806,"(0.0, 0.0, 0.0, 0.0, 0.0, 0.0, 0.0, 0.0, 0.0)"
1969/12/31/19:21:15.665000,247471,1275,665000000,firefly/imugt_link,-6.22132210964e-08,6.4196832722e-09,-0.759179972821,-0.65088076394,"(-1.0, -1.0, -1.0, -1.0, -1.0, -1.0, -1.0, -1.0, -1.0)",0.000467464422486,4.58756654534e-05,0.00539264315395,"(0.0, 0.0, 0.0, 0.0, 0.0, 0.0, 0.0, 0.0, 0.0)",9.89748858498e-09,-1.27959126739e-08,9.8003329658,"(0.0, 0.0, 0.0, 0.0, 0.0, 0.0, 0.0, 0.0, 0.0)"
1969/12/31/19:21:15.675000,247472,1275,670000000,firefly/imugt_link,-5.73463440961e-08,6.08515198963e-09,-0.759190886013,-0.650868034701,"(-1.0, -1.0, -1.0, -1.0, -1.0, -1.0, -1.0, -1.0, -1.0)",0.000464891925486,4.64645494806e-05,0.00535419719736,"(0.0, 0.0, 0.0, 0.0, 0.0, 0.0, 0.0, 0.0, 0.0)",1.06815818507e-08,-1.20677500815e-08,9.80032068088,"(0.0, 0.0, 0.0, 0.0, 0.0, 0.0, 0.0, 0.0, 0.0)"
1969/12/31/19:21:15.675000,247473,1275,675000000,firefly/imugt_link,-5.2460049555e-08,5.74989617452e-09,-0.759201735561,-0.650855379267,"(-1.0, -1.0, -1.0, -1.0, -1.0, -1.0, -1.0, -1.0, -1.0)",0.00046216377497,5.19452507547e-05,0.00531470385935,"(0.0, 0.0, 0.0, 0.0, 0.0, 0.0, 0.0, 0.0, 0.0)",1.1389768414e-08,-1.14124003389e-08,9.80030888715,"(0.0, 0.0, 0.0, 0.0, 0.0, 0.0, 0.0, 0.0, 0.0)"
1969/12/31/19:21:15.675000,247474,1275,680000000,firefly/imugt_link,-4.75580077446e-08,5.41344706084e-09,-0.759212521673,-0.650842797405,"(-1.0, -1.0, -1.0, -1.0, -1.0, -1.0, -1.0, -1.0, -1.0)",0.000465103589247,5.30974929756e-05,0.00527820993889,"(0.0, 0.0, 0.0, 0.0, 0.0, 0.0, 0.0, 0.0, 0.0)",1.20327426126e-08,-1.0866216806e-08,9.80031414015,"(0.0, 0.0, 0.0, 0.0, 0.0, 0.0, 0.0, 0.0, 0.0)"
1969/12/31/19:21:15.675000,247477,1275,695000000,firefly/imugt_link,-3.27757956964e-08,4.40475195975e-09,-0.759244500896,-0.650805491571,"(-1.0, -1.0, -1.0, -1.0, -1.0, -1.0, -1.0, -1.0, -1.0)",0.000471558819842,5.6840101278e-05,0.00516249839083,"(0.0, 0.0, 0.0, 0.0, 0.0, 0.0, 0.0, 0.0, 0.0)",1.36915815536e-08,-9.90291000584e-09,9.8002981223,"(0.0, 0.0, 0.0, 0.0, 0.0, 0.0, 0.0, 0.0, 0.0)"
1969/12/31/19:21:15.700000,247478,1275,700000000,firefly/imugt_link,-2.78272033984e-08,4.0728546315e-09,-0.759255034642,-0.650793202462,"(-1.0, -1.0, -1.0, -1.0, -1.0, -1.0, -1.0, -1.0, -1.0)",0.000470551243997,5.63378248158e-05,0.00512490717203,"(0.0, 0.0, 0.0, 0.0, 0.0, 0.0, 0.0, 0.0, 0.0)",1.41725657639e-08,-9.71363797132e-09,9.80028976644,"(0.0, 0.0, 0.0, 0.0, 0.0, 0.0, 0.0, 0.0, 0.0)"
1969/12/31/19:21:15.705000,247479,1275,705000000,firefly/imugt_link,-2.28705216792e-08,3.74434272433e-09,-0.759265505539,-0.650780986277,"(-1.0, -1.0, -1.0, -1.0, -1.0, -1.0, -1.0, -1.0, -1.0)",0.000470044038788,5.82705745114e-05,0.00508942718459,"(0.0, 0.0, 0.0, 0.0, 0.0, 0.0, 0.0, 0.0, 0.0)",1.46078523626e-08,-9.52439091665e-09,9.80028162751,"(0.0, 0.0, 0.0, 0.0, 0.0, 0.0, 0.0, 0.0, 0.0)"
1969/12/31/19:21:15.710000,247480,1275,710000000,firefly/imugt_link,-1.79077513609e-08,3.41878183125e-09,-0.759275913659,-0.650768842937,"(-1.0, -1.0, -1.0, -1.0, -1.0, -1.0, -1.0, -1.0, -1.0)",0.000468781236349,5.84724138434e-05,0.00504883086449,"(0.0, 0.0, 0.0, 0.0, 0.0, 0.0, 0.0, 0.0, 0.0)",1.49823433162e-08,-9.30821448487e-09,9.80027409403,"(0.0, 0.0, 0.0, 0.0, 0.0, 0.0, 0.0, 0.0, 0.0)"
1969/12/31/19:21:15.715000,247481,1275,715000000,firefly/imugt_link,-1.296823463e-08,3.08531996635e-09,-0.759286259232,-0.650756772183,"(-1.0, -1.0, -1.0, -1.0, -1.0, -1.0, -1.0, -1.0, -1.0)",0.000468240876312,5.62611302462e-05,0.00500719099382,"(0.0, 0.0, 0.0, 0.0, 0.0, 0.0, 0.0, 0.0, 0.0)",1.63937288854e-08,-7.13376009428e-09,9.80028877393,"(0.0, 0.0, 0.0, 0.0, 0.0, 0.0, 0.0, 0.0, 0.0)"
1969/12/31/19:21:15.720000,247482,1275,720000000,firefly/imugt_link,-8.07304247135e-09,2.73581811783e-09,-0.759296542435,-0.650744773814,"(-1.0, -1.0, -1.0, -1.0, -1.0, -1.0, -1.0, -1.0, -1.0)",0.000469330432971,5.4329255296e-05,0.00496541498041,"(0.0, 0.0, 0.0, 0.0, 0.0, 0.0, 0.0, 0.0, 0.0)",1.77268499194e-08,-4.97564321612e-09,9.80029287163,"(0.0, 0.0, 0.0, 0.0, 0.0, 0.0, 0.0, 0.0, 0.0)"
1969/12/31/19:21:15.730000,247483,1275,725000000,firefly/imugt_link,-3.2445984587e-09,2.3697639575e-09,-0.759306763665,-0.650732847375,"(-1.0, -1.0, -1.0, -1.0, -1.0, -1.0, -1.0, -1.0, -1.0)",0.000468826449378,5.14083435401e-05,0.00492905702489,"(0.0, 0.0, 0.0, 0.0, 0.0, 0.0, 0.0, 0.0, 0.0)",1.9694586487e-08,-2.8013764277e-09,9.80032481924,"(0.0, 0.0, 0.0, 0.0, 0.0, 0.0, 0.0, 0.0, 0.0)"
1969/12/31/19:21:15.730000,247484,1275,730000000,firefly/imugt_link,1.50108980272e-09,1.98590818202e-09,-0.759316923221,-0.650720992523,"(-1.0, -1.0, -1.0, -1.0, -1.0, -1.0, -1.0, -1.0, -1.0)",0.000471131928292,5.2390335179e-05,0.00488774127388,"(0.0, 0.0, 0.0, 0.0, 0.0, 0.0, 0.0, 0.0, 0.0)",2.15583165421e-08,-6.16154598144e-10,9.80033567309,"(0.0, 0.0, 0.0, 0.0, 0.0, 0.0, 0.0, 0.0, 0.0)"
1969/12/31/19:21:15.740000,247485,1275,735000000,firefly/imugt_link,6.15391820432e-09,1.5780589821e-09,-0.759327021466,-0.650709208842,"(-1.0, -1.0, -1.0, -1.0, -1.0, -1.0, -1.0, -1.0, -1.0)",0.000476170305382,4.99795003125e-05,0.00484722610715,"(0.0, 0.0, 0.0, 0.0, 0.0, 0.0, 0.0, 0.0, 0.0)",2.30202834904e-08,1.77190387858e-09,9.8003522521,"(0.0, 0.0, 0.0, 0.0, 0.0, 0.0, 0.0, 0.0, 0.0)"
1969/12/31/19:21:15.740000,247486,1275,740000000,firefly/imugt_link,1.07066632458e-08,1.14323519007e-09,-0.759337058677,-0.650697496015,"(-1.0, -1.0, -1.0, -1.0, -1.0, -1.0, -1.0, -1.0, -1.0)",0.000474761261474,4.32342841832e-05,0.00481345973635,"(0.0, 0.0, 0.0, 0.0, 0.0, 0.0, 0.0, 0.0, 0.0)",2.44935028348e-08,4.03440887635e-09,9.80035283592,"(0.0, 0.0, 0.0, 0.0, 0.0, 0.0, 0.0, 0.0, 0.0)"
1969/12/31/19:21:15.740000,247487,1275,745000000,firefly/imugt_link,1.51540378476e-08,6.80656301899e-10,-0.759347035071,-0.650685853795,"(-1.0, -1.0, -1.0, -1.0, -1.0, -1.0, -1.0, -1.0, -1.0)",0.000476515115255,4.11366458489e-05,0.00477897075435,"(0.0, 0.0, 0.0, 0.0, 0.0, 0.0, 0.0, 0.0, 0.0)",2.59793812013e-08,6.1817002694e-09,9.80034460639,"(0.0, 0.0, 0.0, 0.0, 0.0, 0.0, 0.0, 0.0, 0.0)"
1969/12/31/19:21:15.750000,247488,1275,750000000,firefly/imugt_link,1.94918769342e-08,1.9080129207e-10,-0.759356950822,-0.650674281986,"(-1.0, -1.0, -1.0, -1.0, -1.0, -1.0, -1.0, -1.0, -1.0)",0.000476473451673,3.41437026014e-05,0.00474228232873,"(0.0, 0.0, 0.0, 0.0, 0.0, 0.0, 0.0, 0.0, 0.0)",2.74771875823e-08,8.24382341166e-09,9.8003320317,"(0.0, 0.0, 0.0, 0.0, 0.0, 0.0, 0.0, 0.0, 0.0)"
1969/12/31/19:21:15.760000,247489,1275,760000000,firefly/imugt_link,2.77818315539e-08,-8.64768091984e-10,-0.75937660143,-0.65065134842,"(-1.0, -1.0, -1.0, -1.0, -1.0, -1.0, -1.0, -1.0, -1.0)",0.000477406269064,3.74403664443e-05,0.00466916347721,"(0.0, 0.0, 0.0, 0.0, 0.0, 0.0, 0.0, 0.0, 0.0)",3.18793313677e-08,1.33381442998e-08,9.8003303455,"(0.0, 0.0, 0.0, 0.0, 0.0, 0.0, 0.0, 0.0, 0.0)"
1969/12/31/19:21:15.765000,247490,1275,765000000,firefly/imugt_link,3.1713999159e-08,-1.42901801998e-09,-0.75938633667,-0.650639986228,"(-1.0, -1.0, -1.0, -1.0, -1.0, -1.0, -1.0, -1.0, -1.0)",0.000475888473006,3.5131016149e-05,0.00463063815203,"(0.0, 0.0, 0.0, 0.0, 0.0, 0.0, 0.0, 0.0, 0.0)",3.40158817155e-08,1.58906720721e-08,9.80031981395,"(0.0, 0.0, 0.0, 0.0, 0.0, 0.0, 0.0, 0.0, 0.0)"
1969/12/31/19:21:15.770000,247491,1275,770000000,firefly/imugt_link,3.54946851975e-08,-2.01793214738e-09,-0.759396012062,-0.650628693545,"(-1.0, -1.0, -1.0, -1.0, -1.0, -1.0, -1.0, -1.0, -1.0)",0.000476961314346,2.79805016018e-05,0.00459607575096,"(0.0, 0.0, 0.0, 0.0, 0.0, 0.0, 0.0, 0.0, 0.0)",3.60928990884e-08,1.84723597088e-08,9.80030721735,"(0.0, 0.0, 0.0, 0.0, 0.0, 0.0, 0.0, 0.0, 0.0)"
1969/12/31/19:21:15.775000,247492,1275,775000000,firefly/imugt_link,3.91201329209e-08,-2.63880038014e-09,-0.759405627855,-0.650617470087,"(-1.0, -1.0, -1.0, -1.0, -1.0, -1.0, -1.0, -1.0, -1.0)",0.000474647780956,3.21654786545e-05,0.00456243808115,"(0.0, 0.0, 0.0, 0.0, 0.0, 0.0, 0.0, 0.0, 0.0)",3.7704945322e-08,2.13709092961e-08,9.80031164757,"(0.0, 0.0, 0.0, 0.0, 0.0, 0.0, 0.0, 0.0, 0.0)"
1969/12/31/19:21:15.780000,247493,1275,780000000,firefly/imugt_link,4.25877994878e-08,-3.29793253129e-09,-0.75941518424,-0.650606315636,"(-1.0, -1.0, -1.0, -1.0, -1.0, -1.0, -1.0, -1.0, -1.0)",0.000473118219569,3.14364204679e-05,0.00452692387833,"(0.0, 0.0, 0.0, 0.0, 0.0, 0.0, 0.0, 0.0, 0.0)",3.91962102719e-08,2.42919817255e-08,9.80030735688,"(0.0, 0.0, 0.0, 0.0, 0.0, 0.0, 0.0, 0.0, 0.0)"
1969/12/31/19:21:15.780000,247494,1275,785000000,firefly/imugt_link,4.5896276694e-08,-4.00044179513e-09,-0.759424681373,-0.650595230018,"(-1.0, -1.0, -1.0, -1.0, -1.0, -1.0, -1.0, -1.0, -1.0)",0.000474364784479,3.55102073915e-05,0.0044901669783,"(0.0, 0.0, 0.0, 0.0, 0.0, 0.0, 0.0, 0.0, 0.0)",4.05756120256e-08,2.71950472073e-08,9.80029853643,"(0.0, 0.0, 0.0, 0.0, 0.0, 0.0, 0.0, 0.0, 0.0)"
1969/12/31/19:21:15.790000,247495,1275,790000000,firefly/imugt_link,4.90451155771e-08,-4.75009383385e-09,-0.75943411938,-0.65058421309,"(-1.0, -1.0, -1.0, -1.0, -1.0, -1.0, -1.0, -1.0, -1.0)",0.000473009478785,3.73525471897e-05,0.00445192429326,"(0.0, 0.0, 0.0, 0.0, 0.0, 0.0, 0.0, 0.0, 0.0)",4.18597665305e-08,3.00459903805e-08,9.80028775709,"(0.0, 0.0, 0.0, 0.0, 0.0, 0.0, 0.0, 0.0, 0.0)"
